City_ID,City,Lat,Lng,Max Temp,Humidity,Cloudiness,Wind Speed,Country,Date
0,vorgashor,67.5833,63.95,6.48,76,9,2.3,RU,1723063292
1,portland,45.5234,-122.6762,29.99,46,0,0.45,US,1723063004
2,bahir dar,11.5936,37.3908,15.91,92,100,1.15,ET,1723063295
3,amarante do maranhao,-5.5667,-46.7422,30.9,26,4,1.53,BR,1723063296
4,udachny,66.4167,112.4,12.61,59,84,4.31,RU,1723063297
5,port-aux-francais,-49.35,70.2167,1.08,98,99,12.25,TF,1723063299
6,college,64.8569,-147.8028,22.99,59,75,1.54,US,1723063300
7,aasiaat,68.7098,-52.8699,4.47,92,81,3.71,GL,1723063301
8,nchelenge,-9.3451,28.734,20.57,35,54,1.63,ZM,1723063302
9,phongsali,21.6833,102.1058,18.48,99,98,0.82,LA,1723063303
10,saint-philippe,-21.3585,55.7679,19.77,76,0,2.12,RE,1723063304
11,bredasdorp,-34.5322,20.0403,9.25,95,2,1.28,ZA,1723063306
12,iqaluit,63.7506,-68.5145,10.85,62,40,2.06,CA,1723063307
13,susuman,62.7833,148.1667,10.46,77,100,0.98,RU,1723063308
14,hadibu,12.65,54.0333,25.93,81,37,9.31,YE,1723063309
15,puerto natales,-51.7236,-72.4875,2.25,75,0,3.09,CL,1723063310
16,adamstown,-25.066,-130.1015,18.87,65,24,3.62,PN,1723063311
17,bilibino,68.0546,166.4372,8.69,55,0,1.66,RU,1723063312
18,hamilton,39.1834,-84.5333,30.55,66,75,5.14,US,1723063212
19,bethel,41.3712,-73.414,19.45,87,100,2.57,US,1723063314
20,albany,42.6001,-73.9662,25.33,68,49,0.89,US,1723062511
21,kavaratti,10.5669,72.642,27.34,83,100,6.3,IN,1723063317
22,talnakh,69.4865,88.3972,8.98,73,0,3.73,RU,1723063318
23,avarua,-21.2078,-159.775,24.03,60,20,5.14,CK,1723063319
24,salalah,17.0151,54.0924,25.05,100,100,1.54,OM,1723063320
25,irymple,-34.25,142.1667,5.61,86,99,5.0,AU,1723063321
26,luderitz,-26.6481,15.1594,11.75,81,80,3.02,NA,1723063322
27,naliya,23.2667,68.8333,27.43,83,100,8.14,IN,1723063323
28,wailua homesteads,22.0669,-159.378,28.24,68,75,6.17,US,1723063324
29,tura,25.5198,90.2201,24.16,97,100,3.25,IN,1723063325
30,yellowknife,62.456,-114.3525,22.29,47,40,7.72,CA,1723063326
31,konarka,19.9,86.1167,26.76,82,22,2.65,IN,1723063328
32,muisne,0.6,-80.0333,24.8,82,82,4.18,EC,1723063329
33,jiexiu,37.0244,111.9125,20.72,91,52,1.2,CN,1723063330
34,kukawa,12.9234,13.5606,25.79,80,94,4.44,NG,1723063331
35,maceio,-9.6658,-35.7353,25.69,69,20,3.6,BR,1723063321
36,ishinomaki,38.4167,141.3,24.41,90,0,1.75,JP,1723063333
37,oleiros,43.3333,-8.3167,19.88,87,20,4.02,ES,1723063334
38,longyearbyen,78.2186,15.6401,10.91,93,75,1.03,SJ,1723063335
39,trail,49.0998,-117.7022,32.05,20,0,1.25,CA,1723063161
40,ndjole,-0.1783,10.7649,24.33,76,81,1.73,GA,1723063337
41,hermanus,-34.4187,19.2345,8.78,86,2,3.38,ZA,1723063339
42,pervomayskoye,43.919,46.7102,23.56,71,100,4.84,RU,1723063340
43,hirara,24.8,125.2833,28.15,100,40,1.54,JP,1723063341
44,juru,5.312,100.4423,26.97,78,20,1.03,MY,1723063342
45,ilulissat,69.2167,-51.1,5.01,93,75,3.09,GL,1723063343
46,ushuaia,-54.8,-68.3,2.79,69,0,2.06,AR,1723063095
47,ust-nera,64.5667,143.2,11.28,89,100,1.27,RU,1723063345
48,hithadhoo,-0.6,73.0833,28.62,71,100,2.54,MV,1723063346
49,papatowai,-46.5619,169.4708,7.28,92,100,2.51,NZ,1723063347
50,weno,7.4515,151.8468,27.97,83,75,1.54,FM,1723063349
51,chefchaouene,35.1688,-5.2636,20.76,42,0,1.22,MA,1723063350
52,petropavlovsk-kamchatsky,53.0452,158.6483,16.33,82,40,3.0,RU,1723063351
53,an nuhud,12.7,28.4333,28.08,60,93,6.66,SD,1723063352
54,whitehorse,60.7161,-135.0538,25.01,33,0,7.2,CA,1723063354
55,waitangi,-43.9535,-176.5597,10.46,74,45,6.72,NZ,1723063355
56,shache,38.4167,77.2406,27.49,34,4,2.31,CN,1723063356
57,punta arenas,-53.15,-70.9167,2.06,80,0,3.6,CL,1723063357
58,port augusta,-32.5,137.7667,11.37,56,100,7.53,AU,1723063358
59,ocala,29.1872,-82.1401,33.34,69,20,6.17,US,1723063153
60,grytviken,-54.2811,-36.5092,-6.62,72,31,4.93,GS,1723063361
61,kapuskasing,49.4169,-82.4331,22.05,43,100,3.09,CA,1723063363
62,ribeira grande,38.5167,-28.7,26.22,65,20,2.24,PT,1723063364
63,arawa,-6.2132,155.5367,26.07,80,85,1.21,PG,1723063365
64,blackmans bay,-43.0167,147.3167,9.07,80,100,3.79,AU,1723063366
65,kailua-kona,19.6406,-155.9956,28.66,81,40,2.06,US,1723063367
66,tazovsky,67.4667,78.7,8.19,78,100,5.79,RU,1723063368
67,itoman,26.1247,127.6694,29.01,92,0,2.57,JP,1723063370
68,nuuk,64.1835,-51.7216,12.34,66,20,3.09,GL,1723063248
69,horta,38.5333,-28.6333,25.8,77,20,2.24,PT,1723063372
70,soc trang,9.6033,105.98,24.85,92,57,2.07,VN,1723063373
71,kodiak,57.79,-152.4072,14.73,88,0,1.54,US,1723062813
72,murzuq,25.9155,13.9184,32.46,12,1,3.07,LY,1723063376
73,terekli-mekteb,44.1671,45.8698,24.4,69,100,4.3,RU,1723063377
74,saipan,15.1355,145.701,28.39,83,0,0.0,MP,1723063378
75,gazojak,41.1875,61.4036,32.78,18,0,3.97,TM,1723063380
76,stanley,54.868,-1.6985,15.4,76,0,3.09,GB,1723063381
77,jamestown,42.097,-79.2353,25.01,64,100,4.63,US,1723063292
78,uturoa,-16.7333,-151.4333,26.1,79,9,5.39,PF,1723063383
79,dudinka,69.4058,86.1778,8.16,69,0,7.53,RU,1723063384
80,baise city,23.8997,106.6133,28.52,99,1,0.81,CN,1723063385
81,port-gentil,-0.7193,8.7815,23.98,83,20,3.09,GA,1723063386
82,puerto ayora,-0.7393,-90.3518,25.98,93,29,3.13,EC,1723063387
83,sao joao da barra,-21.6403,-41.0511,25.05,80,0,10.59,BR,1723063389
84,thompson,55.7435,-97.8558,19.09,45,75,6.17,CA,1723063390
85,ust'-ilimsk,58.0006,102.6619,16.02,96,92,2.52,RU,1723063391
86,tolanaro,-25.0319,46.9987,22.04,73,75,7.2,MG,1723063392
87,edinburgh of the seven seas,-37.0676,-12.3116,7.9,66,98,13.49,SH,1723063393
88,mount gambier,-37.8333,140.7667,10.65,58,100,5.67,AU,1723063394
89,utrik,11.2278,169.8474,28.35,76,95,5.73,MH,1723063396
90,dunedin,-45.8742,170.5036,9.89,74,100,0.45,NZ,1723063397
91,mugia,43.1041,-9.2179,20.09,82,11,9.77,ES,1723063399
92,kourou,5.1552,-52.6478,30.03,81,65,3.57,GF,1723063400
93,kenai,60.5544,-151.2583,15.01,95,100,4.12,US,1723063401
94,acarau,-2.8856,-40.12,26.0,77,9,8.56,BR,1723063402
95,port lincoln,-34.7333,135.8667,13.86,55,100,9.51,AU,1723063403
96,les avirons,-21.2418,55.3394,18.05,68,0,2.57,RE,1723063404
97,anadyr,64.75,177.4833,9.28,75,20,3.58,RU,1723063405
98,flin flon,54.7682,-101.865,14.91,63,100,3.6,CA,1723063406
99,margaret river,-33.95,115.0667,13.34,65,36,5.26,AU,1723063407
100,antonio enes,-16.2325,39.9086,22.05,74,2,3.1,MZ,1723063408
101,shizuishan,39.2333,106.7694,22.99,73,71,3.5,CN,1723063410
102,espera feliz,-20.6503,-41.9072,19.02,51,14,2.36,BR,1723063161
103,shobara,34.85,133.0167,25.47,80,0,1.02,JP,1723063412
104,oriximina,-1.7656,-55.8661,33.74,39,27,1.54,BR,1723063413
105,itaituba,-4.2761,-55.9836,36.09,36,20,1.54,BR,1723063414
106,geraldton,-28.7667,114.6,13.23,94,100,4.12,AU,1723063415
107,rahuri,19.3833,74.65,23.65,84,97,3.22,IN,1723063416
108,kalmunai,7.4167,81.8167,26.92,86,100,3.55,LK,1723062846
109,bom jesus,-9.0744,-44.3586,28.28,24,0,1.56,BR,1723063418
110,zheleznodorozhnyy,55.7503,38.0042,19.8,72,97,1.55,RU,1723063420
111,walvis bay,-22.9575,14.5053,12.27,87,0,1.86,NA,1723063421
112,broken hill,-31.95,141.4333,8.44,74,100,4.54,AU,1723063422
113,isafjordur,66.0755,-23.124,6.12,92,88,1.66,IS,1723063423
114,jiazi,22.8779,116.067,28.12,86,38,5.86,CN,1723063424
115,lihue,21.9789,-159.3672,28.58,68,75,6.17,US,1723063425
116,peterhead,57.5058,-1.7981,15.25,72,3,6.85,GB,1723063230
117,hawaiian paradise park,19.5933,-154.9731,28.74,73,40,3.6,US,1723063427
118,olonkinbyen,70.9221,-8.7187,5.96,100,100,3.73,SJ,1723063428
119,canutama,-6.5339,-64.3831,37.84,21,17,1.46,BR,1723063430
120,vernon,50.2581,-119.2691,30.42,23,2,0.51,CA,1723063431
121,roma,43.2128,-75.4557,27.2,53,0,2.57,US,1723063432
122,touros,-5.1989,-35.4608,24.58,78,5,6.72,BR,1723063433
123,souillac,-20.5167,57.5167,22.21,68,40,3.09,MU,1723063434
124,gonabad,34.3529,58.6837,27.48,14,0,4.78,IR,1723063435
125,giyani,-23.3025,30.7187,17.94,52,0,1.13,ZA,1723063436
126,invercargill,-46.4,168.35,7.23,93,67,2.68,NZ,1723063437
127,mhamid,29.82,-5.72,38.88,9,16,3.72,MA,1723063438
128,kristiansund,63.1115,7.732,16.03,89,75,2.57,NO,1723063439
129,duyun,26.2667,107.5167,22.05,96,20,2.16,CN,1723063441
130,belmonte,-15.8631,-38.8828,22.01,77,5,3.06,BR,1723063442
131,la passe,45.5549,-0.8967,20.13,66,99,4.61,FR,1723063443
132,atafu village,-8.5421,-172.5159,28.43,71,79,8.73,TK,1723063444
133,inarajan village,13.2736,144.7484,27.44,95,98,2.05,GU,1723063445
134,lorengau,-2.0226,147.2712,27.84,80,41,4.43,PG,1723063446
135,togur,58.3631,82.8265,12.17,93,100,2.21,RU,1723063447
136,swakopmund,-22.6833,14.5333,12.21,83,1,0.45,NA,1723063448
137,flying fish cove,-10.4217,105.6791,24.82,83,75,5.14,CX,1723063449
138,xilin hot,43.9667,116.0333,18.09,55,68,1.3,CN,1723063450
139,sandnessjoen,66.0217,12.6316,18.29,73,100,7.44,NO,1723063452
140,west island,-12.1568,96.8225,25.99,73,20,4.63,CC,1723063454
141,ongjin,37.9347,125.3619,23.87,89,100,1.82,KP,1723063455
142,carnarvon,-24.8667,113.6333,17.79,78,0,4.6,AU,1723063456
143,cockburn town,21.4612,-71.1419,28.25,83,100,6.64,TC,1723063457
144,quellon,-43.1167,-73.6167,8.1,82,22,2.0,CL,1723063458
145,hasaki,35.7333,140.8333,26.27,90,100,1.27,JP,1723063459
146,port saint john's,-31.6229,29.5448,18.58,63,95,2.66,ZA,1723063460
147,sumbawa besar,-8.5,117.4333,20.99,86,6,2.15,ID,1723063461
148,sinabang,2.4803,96.3801,26.51,82,100,1.27,ID,1723063463
149,san luis,-33.295,-66.3356,7.31,47,66,9.88,AR,1723063464
150,klyuchi,52.2667,79.1667,18.87,86,100,2.98,RU,1723063465
151,aitape,-3.1374,142.3475,24.8,88,86,2.22,PG,1723063466
152,ketchikan,55.3422,-131.6461,19.63,51,0,1.76,US,1723063467
153,maragogi,-9.0122,-35.2225,23.67,70,81,3.74,BR,1723063468
154,trelew,-43.249,-65.3051,6.01,55,20,4.4,AR,1723063362
155,kulhudhuffushi,6.6221,73.07,28.15,76,98,6.75,MV,1723063470
156,urbano santos,-3.2078,-43.4036,30.04,39,36,1.63,BR,1723063471
157,castillos,-34.1667,-53.8333,12.07,67,87,3.27,UY,1723063472
158,birjand,32.8663,59.2211,24.26,9,0,3.09,IR,1723063473
159,minas de matahambre,22.5887,-83.9447,31.21,59,38,3.79,CU,1723063475
160,pontivy,48.0,-3.0,16.82,82,83,3.04,FR,1723063476
161,chonchi,-42.6128,-73.8092,10.56,85,35,0.55,CL,1723063477
162,chulym,55.0997,80.9572,15.64,96,12,2.3,RU,1723063478
163,qaqortoq,60.7167,-46.0333,8.25,93,100,1.06,GL,1723063479
164,new norfolk,-42.7826,147.0587,8.84,89,100,1.41,AU,1723063480
165,port blair,11.6667,92.75,26.02,94,75,1.03,IN,1723063481
166,plouzane,48.3833,-4.6167,17.1,84,100,3.09,FR,1723063482
167,enewetak,11.3474,162.3373,28.72,74,39,5.31,MH,1723063484
168,tabuk,17.4189,121.4443,23.46,87,89,1.5,PH,1723063485
169,zeya,53.75,127.2667,16.76,98,100,2.27,RU,1723063487
170,tiksi,71.6872,128.8694,7.14,91,100,1.19,RU,1723063488
171,georgetown,5.4112,100.3354,26.96,78,20,1.03,MY,1723063365
172,balikpapan,-1.2675,116.8289,23.55,88,20,1.54,ID,1723063490
173,laguna,38.421,-121.4238,41.16,14,0,4.12,US,1723063491
174,ancud,-41.8697,-73.8203,8.48,75,3,0.5,CL,1723063493
175,aleksandrov gay,50.147,48.5704,23.28,54,70,3.45,RU,1723063494
176,namibe,-15.1961,12.1522,16.12,84,41,4.61,AO,1723063495
177,papao,-17.75,-149.55,28.82,78,0,7.28,PF,1723063496
178,cerro largo,-28.1486,-54.7381,14.8,98,100,0.96,BR,1723063497
179,ta`u,-14.2336,-169.5144,24.92,77,93,10.31,AS,1723063499
180,port alfred,-33.5906,26.891,18.21,36,7,4.49,ZA,1723063500
181,fuglafjordur,62.244,-6.814,10.26,93,77,3.49,FO,1723063501
182,hafnarfjordur,64.0671,-21.9377,12.93,88,20,3.09,IS,1723063503
183,anloga,5.7947,0.8973,24.73,81,100,6.87,GH,1723063504
184,sanctuary point,-35.1114,150.629,6.85,77,7,2.12,AU,1723063505
185,barcelos,41.5388,-8.6151,22.05,85,0,0.7,PT,1723063506
186,mar del plata,-38.0023,-57.5575,9.01,97,100,7.2,AR,1723063066
187,barra de santo antonio,-9.4047,-35.5072,25.6,74,39,4.06,BR,1723063509
188,tortoli,39.9256,9.6572,29.43,78,0,2.57,IT,1723063510
189,cam ranh,11.9214,109.1591,27.98,78,20,1.03,VN,1723063511
190,al qusiyah,27.4402,30.8184,33.15,24,8,3.98,EG,1723063512
191,al jumum,21.6169,39.6981,32.06,53,83,1.0,SA,1723063513
192,afaahiti,-17.75,-149.2833,27.93,83,33,7.61,PF,1723063514
193,sagalo,12.2007,-10.6996,23.49,88,70,1.45,ML,1723063515
194,constantia,44.1833,28.65,18.38,70,3,2.26,RO,1723063516
195,jingdezhen,29.2947,117.2079,25.69,80,4,0.91,CN,1723063517
196,antsiranana,-12.2787,49.2917,21.77,66,0,7.84,MG,1723063519
197,nabire,-3.3667,135.4833,23.09,96,94,1.33,ID,1723063520
198,genhe,50.7833,121.5167,13.58,95,99,3.86,CN,1723063286
199,christchurch,-43.5333,172.6333,9.97,78,75,3.09,NZ,1723062950
200,nizhnedevitsk,51.5419,38.3657,18.49,80,90,2.73,RU,1723063523
201,al jawf,29.5,38.75,28.87,13,2,2.24,SA,1723063524
202,paracuru,-3.41,-39.0306,27.28,83,5,6.59,BR,1723063525
203,port elizabeth,-33.918,25.5701,13.51,51,0,1.54,ZA,1723063526
204,narvik,68.4384,17.4272,21.67,58,0,3.85,NO,1723063527
205,pozarevac,44.6153,21.1825,19.5,43,0,0.81,RS,1723063529
206,haiku-pauwela,20.9219,-156.3051,28.98,65,20,9.77,US,1723063531
207,al bawiti,28.3492,28.8659,30.84,30,0,3.61,EG,1723063532
208,nishinoomote,30.7333,131.0,29.37,78,10,5.15,JP,1723063533
209,nizhneudinsk,54.9076,99.0276,13.08,93,83,1.64,RU,1723063534
210,kingston,17.997,-76.7936,32.53,70,20,10.29,JM,1723062974
211,magnitka,55.3475,59.6961,13.03,99,78,1.95,RU,1723063536
212,mejit,10.2753,170.8646,27.64,78,100,4.17,MH,1723063537
213,nemuro,43.3236,145.575,17.49,100,100,4.07,JP,1723063538
214,ceerigaabo,10.6162,47.368,20.11,57,7,7.92,SO,1723063540
215,nehe,48.4833,124.8333,16.09,81,1,1.78,CN,1723063542
216,cookeville,36.1628,-85.5016,32.54,76,37,3.89,US,1723063323
217,prince george,53.9166,-122.753,24.79,46,0,2.57,CA,1723063544
218,fomboni,-12.28,43.7425,25.17,65,5,2.95,KM,1723063545
219,ulundi,-28.3352,31.4162,14.21,50,5,2.0,ZA,1723063546
220,clinton,42.587,-82.9199,26.79,55,75,5.14,US,1723063464
221,osakarovka,50.565,72.5692,18.15,77,78,2.21,KZ,1723063275
222,conde,-7.2597,-34.9075,25.7,73,40,6.69,BR,1723063549
223,vila velha,-20.3297,-40.2925,24.97,80,0,6.69,BR,1723063279
224,at taj,24.2049,23.2857,32.5,18,3,6.32,LY,1723063553
225,colesberg,-30.72,25.0972,12.03,33,2,3.2,ZA,1723063554
226,zaragoza,41.6561,-0.8773,30.25,53,0,6.17,ES,1723063555
227,manokwari,-0.8667,134.0833,25.63,77,99,1.6,ID,1723063556
228,remire-montjoly,4.9167,-52.2667,30.02,74,0,4.63,GF,1723063557
229,acapulco de juarez,16.8634,-99.8901,31.9,55,100,7.72,MX,1723063558
230,berdigestyakh,62.0989,126.6992,8.72,84,2,1.1,RU,1723063559
231,puerto ayacucho,5.6639,-67.6236,29.26,79,84,0.65,VE,1723063560
232,tonj,7.2737,28.6822,21.94,94,100,1.31,SS,1723063561
233,okhotsk,59.3833,143.3,13.82,85,3,0.93,RU,1723063562
234,guanica,17.9716,-66.908,31.17,78,17,4.24,PR,1723063563
235,kissidougou,9.1848,-10.0999,21.6,97,99,1.84,GN,1723063565
236,badger,64.8,-147.5333,22.14,49,75,0.0,US,1723063566
237,sihanoukville,10.6093,103.5296,25.97,94,40,1.03,KH,1723063567
238,ak-dovurak,51.1833,90.6,12.75,68,62,0.41,RU,1723063568
239,fale old settlement,-9.3852,-171.2468,28.13,69,100,8.34,TK,1723063569
240,padang,-0.9492,100.3543,26.03,86,100,2.05,ID,1723063570
241,sarina,-21.4333,149.2167,17.93,1,89,3.72,AU,1723063571
242,markivka,49.5229,39.5705,20.97,48,48,1.88,UA,1723063572
243,gisborne,-38.6533,178.0042,8.87,67,29,2.12,NZ,1723063573
244,dryden,49.7833,-92.7503,20.16,77,100,6.69,CA,1723063574
245,mayna,54.1135,47.6231,17.03,75,13,1.83,RU,1723063576
246,otumba,19.7,-98.75,22.11,57,97,3.13,MX,1723063577
247,zabaykal'sk,49.6333,117.3167,14.3,76,0,1.84,RU,1723063578
248,lompoc,34.6391,-120.4579,29.21,64,0,5.66,US,1723063579
249,jalapa,19.5333,-96.9167,22.21,85,98,2.35,MX,1723063580
250,vilyuchinsk,52.9306,158.4028,18.15,85,44,3.67,RU,1723063581
251,nsanje,-16.92,35.262,20.58,62,0,1.66,MW,1723063582
252,praia da vitoria,38.7333,-27.0667,24.14,73,20,2.4,PT,1723063564
253,puerto deseado,-47.7503,-65.8938,5.43,69,6,6.73,AR,1723063584
254,wenling,28.3669,121.36,26.7,91,96,1.86,CN,1723063585
255,le grazie di ancona,43.6008,13.5153,27.93,61,75,3.6,IT,1723063586
256,rio preto da eva,-2.6994,-59.6997,36.51,26,11,1.94,BR,1723063588
257,machico,32.7,-16.7667,24.35,73,20,4.63,PT,1723063589
258,imbituba,-28.24,-48.6703,21.59,84,100,1.01,BR,1723063590
259,lata,40.1629,-8.3327,14.95,92,0,1.17,PT,1723063591
260,aromashevo,56.8602,68.6375,13.2,69,100,3.13,RU,1723063592
261,rio verde de mato grosso,-18.9181,-54.8442,31.07,20,0,2.9,BR,1723063593
262,bandrele,-12.9067,45.1914,22.86,88,0,1.54,YT,1723063594
263,egilsstadir,65.2653,-14.3948,8.95,87,75,5.66,IS,1723063595
264,san jose de jachal,-30.2406,-68.7469,6.83,40,100,5.4,AR,1723063596
265,san juan,-31.5375,-68.5364,10.72,29,95,6.81,AR,1723063356
266,planeta rica,8.4147,-75.5883,28.3,78,100,1.43,CO,1723063600
267,pisco,-13.7,-76.2167,20.03,64,20,6.69,PE,1723063449
268,tsetserleg,47.475,101.4542,11.28,95,100,0.94,MN,1723063602
269,mahanoro,-19.9,48.8,18.7,92,41,2.38,MG,1723063603
270,borogontsy,62.6683,131.1683,9.46,83,0,1.86,RU,1723063604
271,chatan,26.3094,127.7703,28.89,93,0,3.09,JP,1723063605
272,dehui,44.5333,125.7,21.38,98,95,3.45,CN,1723063606
273,nueve de julio,-35.4444,-60.8831,10.54,73,83,2.68,AR,1723063607
274,fastiv,50.0767,29.9177,20.12,57,100,2.66,UA,1723063608
275,kerikeri,-35.2268,173.9474,12.32,81,71,2.46,NZ,1723063609
276,happy valley-goose bay,53.3168,-60.3315,16.17,88,75,2.57,CA,1723063610
277,alice springs,-23.7,133.8833,9.75,62,0,2.57,AU,1723063612
278,tieli,46.95,128.05,19.22,96,100,1.68,CN,1723063613
279,harstad,68.799,16.5293,21.66,56,2,2.86,NO,1723063614
280,turkmenbasy,40.0222,52.9552,26.43,83,75,2.06,TM,1723063615
281,san juan de miraflores,-12.1629,-76.9635,17.32,82,94,3.57,PE,1723063616
282,aras-asan,8.8908,126.3033,25.44,86,93,3.08,PH,1723063617
283,polyarnyy,69.1989,33.4478,14.31,59,9,4.76,RU,1723063577
284,banda aceh,5.5577,95.3222,26.53,83,100,3.78,ID,1723063619
285,piacabucu,-10.4056,-36.4344,23.13,78,0,2.37,BR,1723063620
286,gao,16.6362,1.637,30.11,58,99,8.69,ML,1723063621
287,laminusa,5.5549,120.9136,28.14,76,100,5.52,PH,1723063622
288,sao felix do xingu,-6.6447,-51.995,31.39,25,1,0.8,BR,1723063624
289,san andres,12.5847,-81.7006,26.01,94,40,4.63,CO,1723063584
290,acajutla,13.5928,-89.8275,29.33,70,94,2.2,SV,1723063627
291,arraial do cabo,-22.9661,-42.0278,25.98,73,0,6.17,BR,1723063628
292,vadso,70.0744,29.7487,19.49,58,0,2.57,NO,1723063629
293,yorkton,51.2167,-102.4677,13.91,62,100,7.72,CA,1723063502
294,ruteng,-8.6136,120.4721,15.31,93,34,0.56,ID,1723063631
295,yaremche,48.4583,24.5519,14.33,87,91,2.14,UA,1723063632
296,ghatsila,22.6,86.4833,25.78,95,97,0.95,IN,1723063633
297,port mathurin,-19.6833,63.4167,22.25,75,9,5.01,MU,1723063565
298,koh kong,11.6175,102.9806,26.16,88,100,1.31,KH,1723063636
299,sitia,35.2,26.0986,30.55,62,0,5.98,GR,1723063637
300,dali,25.7,100.1833,17.06,95,83,2.1,CN,1723063638
301,loreto,22.2667,-101.9667,29.04,25,22,3.83,MX,1723063639
302,fort bragg,35.139,-79.006,26.22,94,100,6.17,US,1723063562
303,kigoma,-4.8769,29.6267,24.57,47,32,0.93,TZ,1723063641
304,auki,-8.7676,160.7034,25.08,92,100,1.61,SB,1723063642
305,juan de ayolas,-27.4,-56.9,14.85,96,100,4.58,PY,1723063643
306,mahina,-17.5065,-149.489,28.87,70,40,8.23,PF,1723063644
307,linjiang,41.8069,126.9078,18.49,97,100,0.49,CN,1723063646
308,boa viagem,-5.1275,-39.7322,27.12,35,1,1.44,BR,1723063647
309,kholmskiy,44.8469,38.385,18.62,77,2,1.86,RU,1723063648
310,nova sintra,14.8667,-24.7167,25.62,84,89,6.06,CV,1723063576
311,badiyah,22.45,58.8,27.94,68,50,2.87,OM,1723063650
312,fendou,46.65,124.8667,20.09,84,13,2.23,CN,1723063651
313,nikolayevsk-on-amure,53.1406,140.73,14.46,90,100,1.69,RU,1723063652
314,kinmparana,12.8402,-4.9199,26.6,80,71,4.48,ML,1723063653
315,codrington,-38.2667,141.9667,11.22,59,100,8.72,AU,1723063654
316,nieuw amsterdam,5.8833,-55.0833,33.09,70,40,5.14,SR,1723063655
317,bawku,11.0616,-0.2417,22.44,90,100,0.32,GH,1723063657
318,monclova,26.9,-101.4167,36.46,26,3,1.34,MX,1723063658
319,n'zeto,-7.2312,12.8666,21.05,85,19,3.6,AO,1723063659
320,el galpon,-25.3807,-64.6526,15.57,43,85,3.75,AR,1723063660
321,bor,56.3567,44.0669,15.96,90,36,1.14,RU,1723063661
322,coquimbo,-29.9533,-71.3436,13.85,60,75,4.12,CL,1723063456
323,tarakan,3.3,117.6333,26.01,82,100,2.16,ID,1723063663
324,noosa heads,-26.3833,153.15,14.08,78,51,5.72,AU,1723063664
325,santanyi,39.3546,3.1291,29.34,83,1,5.06,ES,1723063665
326,abaza,52.655,90.0928,14.13,92,90,2.15,RU,1723063666
327,san,13.3034,-4.8956,27.76,74,95,5.24,ML,1723063557
328,micheweni,-4.9667,39.8333,24.78,80,11,6.2,TZ,1723063669
329,mchinji,-13.7984,32.8802,16.12,46,3,1.43,MW,1723063670
330,mandalgovi,45.7625,106.2708,16.62,68,82,5.99,MN,1723063671
331,poplar bluff,36.757,-90.3929,26.94,64,100,5.36,US,1723063559
332,taiynsha,53.8478,69.7639,15.03,96,100,2.72,KZ,1723063673
333,st. john's,47.5649,-52.7093,21.27,70,100,0.45,CA,1723063634
334,saudarkrokur,65.7461,-19.6394,7.37,94,87,0.88,IS,1723063675
335,chokwe,-24.5333,32.9833,17.86,76,0,4.18,MZ,1723063676
336,bechar,31.6167,-2.2167,39.18,10,20,5.66,DZ,1723063677
337,wewak,-3.5534,143.6268,25.77,88,98,2.82,PG,1723063678
338,tofol,5.3248,163.0078,28.6,71,85,3.18,FM,1723063680
339,harrismith,-28.2728,29.1295,8.04,33,22,3.76,ZA,1723063681
340,lebu,-37.6167,-73.65,8.77,74,0,5.82,CL,1723063682
341,watford city,47.8022,-103.2832,20.09,63,40,3.09,US,1723063683
342,mulayjah,27.271,48.4242,36.1,17,12,3.67,SA,1723063684
343,natal,-5.795,-35.2094,26.36,73,75,8.23,BR,1723063685
344,bridgewater,44.3835,-64.5155,23.39,69,94,5.14,CA,1723063686
345,greymouth,-42.4667,171.2,8.92,84,92,6.51,NZ,1723063687
346,nar'yan-mar,67.6713,53.087,5.57,90,9,3.1,RU,1723063688
347,malango,-2.9627,119.9001,17.52,99,71,1.03,ID,1723063689
348,aykhal,66.0,111.5,12.32,61,89,4.24,RU,1723063690
349,ulladulla,-35.35,150.4667,7.9,71,8,2.06,AU,1723063692
350,kiunga,-6.1219,141.2906,22.68,98,95,1.63,PG,1723063693
351,stillwater,36.1156,-97.0584,38.95,35,0,3.09,US,1723063576
352,miracema do tocantins,-9.5618,-48.3967,30.3,21,0,1.83,BR,1723063695
353,nadym,65.5333,72.5167,5.44,90,11,4.35,RU,1723063559
354,santiago de cao,-7.9589,-79.2392,17.07,88,75,5.14,PE,1723063697
355,gaigeturi,33.4644,126.3183,27.03,83,20,1.03,KR,1723063616
356,sechura,-5.5569,-80.8222,23.29,57,12,8.98,PE,1723063699
357,bag,22.3667,74.7667,25.69,85,98,6.46,IN,1723063700
358,mount isa,-20.7333,139.5,4.87,75,0,0.0,AU,1723063615
359,sitka,57.0531,-135.33,15.94,82,75,2.06,US,1723063702
360,antigonish,45.6169,-61.9986,23.64,64,100,2.6,CA,1723063704
361,mumbwa,-14.9783,27.0619,17.96,35,2,2.29,ZM,1723063705
362,labytnangi,66.6572,66.4183,7.28,83,2,1.27,RU,1723063706
363,yima,34.7381,111.8839,22.28,98,100,3.06,CN,1723063707
364,yershov,51.3513,48.2766,20.57,65,93,2.46,RU,1723063708
365,eldorado at santa fe,35.5264,-105.9347,33.79,24,0,3.6,US,1723063709
366,tual,-5.6667,132.75,25.23,85,86,9.79,ID,1723063710
367,pitimbu,-7.4706,-34.8086,26.33,70,93,5.68,BR,1723063712
368,colonia,50.9333,6.95,20.46,82,20,0.51,DE,1723063466
369,sarangani,5.4033,125.4636,27.69,78,73,3.27,PH,1723063714
370,keflavik,64.0049,-22.5624,12.95,87,0,5.14,IS,1723063716
371,feni,23.0186,91.41,24.93,93,100,4.46,BD,1723063717
372,tikhvin,59.6451,33.5294,12.34,74,60,2.09,RU,1723063718
373,wynyard,-41.0,145.7167,10.35,91,100,3.78,AU,1723063720
374,gloversville,43.0528,-74.3438,25.6,66,40,2.57,US,1723063582
375,san clemente del tuyu,-36.3569,-56.7235,10.61,82,100,8.39,AR,1723063722
376,lospalos,-8.5186,127.0025,19.3,94,4,2.43,TL,1723063723
377,gryazovets,58.88,40.2525,12.1,97,62,2.57,RU,1723063724
378,bria,6.5423,21.9863,20.43,96,100,0.8,CF,1723063725
379,toliara,-23.35,43.6667,21.74,71,0,5.11,MG,1723063726
380,rawson,-43.3002,-65.1023,5.86,58,37,4.43,AR,1723063728
381,sulit,6.2361,125.0206,22.24,92,100,0.88,PH,1723063729
382,katsuura,35.1333,140.3,25.87,91,80,0.7,JP,1723063730
383,karratha,-20.7377,116.8463,20.2,39,4,4.19,AU,1723063579
384,margate,51.3813,1.3862,17.72,72,100,6.95,GB,1723063732
385,fisterra,42.9049,-9.2629,20.01,82,2,10.32,ES,1723063733
386,dadukou,26.5479,101.7054,21.23,92,28,0.82,CN,1723063734
387,puerto baquerizo moreno,-0.9,-89.6,21.55,94,75,6.17,EC,1723063665
388,naze,28.3667,129.4833,24.51,82,2,0.72,JP,1723063560
389,san patricio,28.017,-97.5169,36.97,34,5,4.36,US,1723063673
390,sawankhalok,17.316,99.8319,24.46,94,100,1.52,TH,1723063740
391,usinsk,65.9939,57.5281,10.45,69,7,4.05,RU,1723063640
392,mount pearl,47.5166,-52.7813,20.81,70,100,4.02,CA,1723063742
393,westport,41.1415,-73.3579,19.75,86,100,4.12,US,1723063649
394,pauini,-7.7136,-66.9764,35.52,31,86,0.9,BR,1723063744
395,ati,13.2154,18.3353,27.69,68,100,5.05,TD,1723063745
396,balykchy,42.4557,76.1861,17.12,59,0,1.12,KG,1723063746
397,enid,36.3956,-97.8784,40.57,35,0,4.12,US,1723063747
398,matsue,35.4722,133.0506,23.97,83,20,4.12,JP,1723063608
399,bandarbeyla,9.4942,50.8122,25.15,86,52,13.87,SO,1723063749
400,buala,-8.145,159.5921,26.62,83,100,3.41,SB,1723063751
401,gombi,10.1614,12.7399,22.41,84,95,2.42,NG,1723063752
402,graham,47.0529,-122.2943,26.54,55,0,3.09,US,1723063753
403,isangel,-19.55,169.2667,20.96,69,88,5.42,VU,1723063754
404,novyy turtkul',41.55,61.0167,24.95,19,0,2.49,UZ,1723063755
405,kununurra,-15.7667,128.7333,17.99,72,96,0.0,AU,1723063756
406,burutu,5.3509,5.5076,25.5,80,73,4.53,NG,1723063757
407,boende,-0.2167,20.8667,25.4,71,98,0.83,CD,1723063646
408,ceeldheer,3.8488,47.1806,24.29,84,100,6.38,SO,1723063759
409,stara zagora,42.4328,25.6419,19.95,55,0,3.66,BG,1723063760
410,ulanhot,46.0833,122.0833,18.9,70,78,2.82,CN,1723063762
411,boca suno,-0.7167,-77.1333,31.77,43,16,1.01,EC,1723063763
412,ola,59.5833,151.2833,12.42,86,47,1.99,RU,1723063675
413,concepcion,-36.827,-73.0498,11.89,43,0,3.6,CL,1723063709
414,likisa,-8.6695,125.6875,16.84,44,6,3.07,TL,1723063766
415,amga,60.8953,131.9608,10.21,82,0,1.03,RU,1723063767
416,torbat-e jam,35.244,60.6225,26.79,17,0,6.44,IR,1723063768
417,rio gallegos,-51.6226,-69.2181,2.03,64,0,2.57,AR,1723063769
418,porto novo,6.4965,2.6036,25.9,81,100,4.28,BJ,1723063770
419,saint-pierre,-21.3393,55.4781,19.82,68,0,2.57,RE,1723063771
420,haikou,20.0458,110.3417,26.07,100,0,2.0,CN,1723063772
421,zag,46.9441,99.165,14.67,53,100,1.04,MN,1723063774
422,bull savanna,17.8868,-77.5902,29.22,68,100,8.07,JM,1723063775
423,linfen,36.0889,111.5189,25.3,72,82,3.44,CN,1723063776
424,paicandu,-23.4575,-52.0486,30.37,26,0,7.2,BR,1723063777
425,zapata,26.9073,-99.2714,38.06,30,0,1.54,US,1723063778
426,bodaybo,57.8506,114.1933,15.78,77,10,0.9,RU,1723063779
427,lobva,59.1854,60.5185,10.4,95,99,1.89,RU,1723063780
428,shinkafi,13.0753,6.5105,26.43,76,100,3.75,NG,1723063781
429,namdrik,5.5994,168.1028,26.22,87,96,8.67,MH,1723063782
430,kolpashevo,58.3131,82.9089,12.23,93,100,2.19,RU,1723063783
431,al hudaydah,14.7978,42.9545,29.83,70,100,6.9,YE,1723063784
432,buka,40.8108,69.1986,24.65,27,0,2.65,UZ,1723063780
433,las khorey,11.1595,48.1967,31.07,64,3,4.16,SO,1723063788
434,grand gaube,-20.0064,57.6608,19.65,82,0,0.89,MU,1723063789
435,karamay,45.6004,84.8661,27.37,27,9,6.75,CN,1723063790
436,broome,42.2506,-75.833,22.46,75,100,3.58,US,1723063791
437,kasongo,-4.45,26.6667,25.54,25,8,1.82,CD,1723063792
438,magadi,12.9667,77.2333,23.09,93,100,3.05,IN,1723063793
439,klaksvik,62.2266,-6.589,10.51,92,73,4.03,FO,1723063795
440,nantucket,41.2835,-70.0995,19.45,82,100,6.17,US,1723063754
441,robore,-18.3333,-59.75,33.05,43,40,7.72,BO,1723063797
442,tongren,27.7172,109.1853,24.7,90,9,1.36,CN,1723063799
443,kidal,18.4411,1.4078,33.47,45,3,9.32,ML,1723063758
444,ishigaki,24.3448,124.1572,27.07,100,100,1.54,JP,1723063801
445,hakodate,41.7758,140.7367,24.17,88,75,1.54,JP,1723063802
446,iskateley,67.6803,53.1512,5.51,90,9,3.08,RU,1723063803
447,opuwo,-18.0607,13.84,19.4,27,0,1.89,NA,1723063804
448,kamaishi,39.2667,141.8833,23.75,90,42,1.56,JP,1723063806
449,beruwala,6.4788,79.9828,26.61,85,23,3.94,LK,1723063807
450,kyabe,9.4515,18.9449,23.86,90,99,1.07,TD,1723063808
451,waddan,29.1614,16.139,34.52,16,17,4.45,LY,1723063809
452,nelson bay,-32.7167,152.15,8.89,85,6,2.4,AU,1723063810
453,kurmuk,10.55,34.2833,20.56,96,98,1.03,SD,1723063811
454,lerwick,60.1545,-1.1494,13.0,81,22,9.28,GB,1723063812
455,labuan,5.2767,115.2417,26.2,94,20,0.0,MY,1723063813
456,takai,11.5833,9.1167,23.73,83,94,3.27,NG,1723063814
457,bakal,54.9417,58.8083,13.07,98,83,1.78,RU,1723063815
458,markovo,57.3206,107.0881,13.85,98,17,1.96,RU,1723063818
459,dumai,1.6833,101.45,23.04,99,100,0.86,ID,1723063755
460,el granada,37.5027,-122.4694,33.09,55,0,7.2,US,1723063820
461,mata-utu,-13.2816,-176.1745,25.9,67,25,9.74,WF,1723063732
462,turabah,21.2141,41.6331,28.47,46,94,1.02,SA,1723063822
463,puerto san jose,13.9256,-90.8244,30.58,73,84,4.45,GT,1723063823
464,la'ie,21.6477,-157.9253,29.98,66,4,7.12,US,1723063824
465,kibre mengist,5.8833,38.9833,16.43,83,100,0.94,ET,1723063825
466,amuntai,-2.4177,115.2494,22.36,100,60,0.33,ID,1723063826
467,amurzet,47.6967,131.0981,20.36,90,17,1.11,RU,1723063828
468,boden,65.8252,21.6886,15.0,79,0,1.13,SE,1723063829
469,mascotte,28.5783,-81.8867,34.39,60,100,5.56,US,1723063290
470,redding,40.5865,-122.3917,39.71,13,85,2.38,US,1723063567
471,san antonio de pale,-1.4014,5.6325,23.0,82,100,4.54,GQ,1723063603
472,sao raimundo nonato,-9.0153,-42.6994,27.79,31,7,2.09,BR,1723063833
473,sal rei,16.1833,-22.9167,24.43,76,42,5.04,CV,1723063834
474,vuktyl,63.8567,57.3094,10.45,68,6,1.79,RU,1723063835
475,yarmouth,41.7057,-70.2286,19.98,84,100,4.63,US,1723063836
476,fort riley north,39.1108,-96.8139,29.45,42,0,4.12,US,1723063837
477,west bay,19.3667,-81.4167,31.7,58,20,1.03,KY,1723063839
478,tsiombe,-25.3,45.4833,20.16,78,73,6.67,MG,1723063638
479,mwinilunga,-11.7358,24.4293,17.0,25,69,1.55,ZM,1723063841
480,santo antonio do ica,-3.1022,-67.9397,34.54,39,40,0.95,BR,1723063842
481,amursk,50.2261,136.8994,19.09,99,100,2.04,RU,1723063843
482,east london,-33.0153,27.9116,19.55,31,40,2.25,ZA,1723063338
483,cortez,37.3489,-108.5859,32.61,27,0,3.6,US,1723063845
484,moravska trebova,49.7579,16.6643,20.08,76,87,0.64,CZ,1723063846
485,bardai,11.65,7.2333,21.86,95,79,2.61,NG,1723063847
486,kharp,66.8014,65.8081,7.51,84,4,0.72,RU,1723063848
487,afif,23.9065,42.9172,27.99,49,74,7.28,SA,1723063850
488,chibougamau,49.9168,-74.3659,17.79,59,100,3.6,CA,1723063851
489,bojnurd,37.4747,57.329,27.97,51,0,2.06,IR,1723063852
490,sosnovo-ozerskoye,52.5249,111.5418,12.48,91,100,0.7,RU,1723063853
491,drayton valley,53.2168,-114.9854,19.19,55,10,2.68,CA,1723063854
492,stettler,52.3168,-112.7186,17.64,39,75,1.57,CA,1723063855
493,sanya,18.2431,109.505,28.09,89,20,1.0,CN,1723063856
494,funafuti,-8.5243,179.1942,29.0,79,75,6.69,TV,1723063857
495,naracoorte,-36.9579,140.7383,10.13,60,100,6.81,AU,1723063858
496,kayangel,8.0823,134.7173,28.28,78,94,4.53,PW,1723063859
497,hovd,48.0056,91.6419,18.34,42,93,2.64,MN,1723063861
498,kaga bandoro,6.9896,19.1874,22.36,92,100,1.49,CF,1723063862
499,kuybyshev,55.4475,78.3218,14.89,98,4,2.77,RU,1723063863
500,lobujya,27.95,86.8167,2.33,97,100,1.32,NP,1723063864
501,awjilah,29.1081,21.2869,33.38,22,0,2.99,LY,1723063865
502,alofi,-19.0595,-169.9187,23.94,60,75,5.14,NU,1723063866
503,qamdo,31.1667,97.2333,7.99,81,100,2.23,CN,1723063867
504,griffith,41.5284,-87.4237,26.96,61,0,6.17,US,1723063868
505,silopi,37.2497,42.4694,31.65,16,0,2.64,TR,1723063869
506,magadan,59.5667,150.8,12.11,85,9,1.08,RU,1723063870
507,howrah,22.5892,88.3103,28.0,94,40,2.06,IN,1723063872
508,kafue,-15.7691,28.1814,17.0,46,3,2.02,ZM,1723063873
509,troitsko-pechorsk,62.7084,56.1964,7.72,79,0,1.42,RU,1723063874
510,raduzhny,62.0961,77.475,8.73,82,80,3.46,RU,1723063875
511,tangalle,6.024,80.7911,25.82,88,6,4.4,LK,1723063876
512,sona,45.4388,10.8255,21.75,88,100,4.12,IT,1723063877
513,wangon,-7.5161,109.0539,25.7,92,99,1.23,ID,1723063878
514,wenxing,28.6667,112.8833,28.02,74,9,3.36,CN,1723063879
515,bahawalnagar,30.5508,73.3908,31.41,68,100,3.27,PK,1723063880
516,zhanaozen,43.3,52.8,29.58,34,10,7.71,KZ,1723063882
517,sur,22.5667,59.5289,28.16,73,64,5.56,OM,1723063883
518,tirupati,13.65,79.4167,22.81,87,100,1.21,IN,1723063884
519,miandrivazo,-19.5167,45.4667,21.07,54,0,0.92,MG,1723063885
520,nea alikarnassos,35.3333,25.1667,28.82,49,0,3.09,GR,1723063886
521,dalandzadgad,43.5708,104.425,24.11,43,99,4.64,MN,1723063887
522,carolina beach,34.0352,-77.8936,27.04,92,99,10.65,US,1723063888
523,holualoa,19.6228,-155.9522,27.15,83,40,2.06,US,1723063837
524,nyurba,63.2842,118.3319,9.82,84,63,1.7,RU,1723063890
525,arkhangel'sk,64.5401,40.5433,11.06,82,0,2.0,RU,1723063891
526,le port,-20.9373,55.2919,20.0,92,20,0.69,RE,1723063892
527,tondano,1.3038,124.9112,19.05,99,75,1.26,ID,1723063894
528,tonekabon,36.8163,50.8738,26.97,92,28,1.11,IR,1723063895
529,tezu,27.9167,96.1667,24.67,99,100,0.64,IN,1723063896
530,isla vista,34.4133,-119.861,30.75,47,13,2.78,US,1723063897
531,sinop,41.7711,34.8709,16.4,86,41,1.25,TR,1723063898
532,illizi,26.4833,8.4667,33.74,17,0,4.03,DZ,1723063899
533,sisimiut,66.9395,-53.6735,7.7,82,64,5.99,GL,1723063900
534,tralee,52.2704,-9.7026,14.09,94,98,1.93,IE,1723063901
535,kakonko,-3.2828,30.9642,20.44,35,6,0.5,TZ,1723063902
536,baturaja,-4.1333,104.1667,23.35,86,100,1.06,ID,1723063903
537,san luis de la loma,17.2706,-100.8939,31.42,64,39,6.1,MX,1723063905
538,qarauyl,48.9451,79.255,22.67,46,100,2.42,KZ,1723063906
539,mocimboa,-11.3167,40.35,21.84,84,4,3.24,MZ,1723063907
540,pandan,14.0453,124.1694,27.14,86,51,3.58,PH,1723063908
541,dzhangala,49.2167,50.3333,24.74,53,45,3.6,KZ,1723063909
542,chaman,30.9236,66.4512,30.01,14,3,4.47,PK,1723063910
543,tazacorte,28.629,-17.9293,24.54,87,100,5.66,ES,1723063911
544,coxim,-18.5067,-54.76,32.73,19,0,2.71,BR,1723063912
545,hede,33.7681,120.2517,25.32,96,100,1.75,CN,1723063913
546,tavrichanka,43.3378,131.8639,18.92,97,100,1.94,RU,1723063914
547,bam,29.106,58.357,34.13,5,0,3.19,IR,1723063916
548,aibak,36.2647,68.0155,24.47,23,0,1.37,AF,1723063917
549,panglao,9.5781,123.7458,28.35,76,100,3.26,PH,1723063918
550,san matias,-16.3667,-58.4,36.28,21,27,2.47,BO,1723063919
551,mambajao,9.2504,124.7156,27.17,83,100,1.87,PH,1723063920
552,darhan,49.4867,105.9228,14.95,91,100,2.16,MN,1723063921
553,chetwayi,10.5333,76.05,25.67,87,100,4.54,IN,1723063922
554,skikda,36.8762,6.9092,26.24,58,0,1.81,DZ,1723063923
555,pangody,65.85,74.4859,8.77,76,100,4.74,RU,1723063924
556,bikenibeu village,1.3673,173.1241,26.98,89,20,0.0,KI,1723063925
557,aoulef,26.9667,1.0833,37.87,11,0,6.58,DZ,1723063927
558,zhalantun,48.0,122.7167,16.15,78,72,2.49,CN,1723063925
559,puerto quijarro,-17.7833,-57.7667,35.29,21,1,1.92,BO,1723063929
560,champerico,14.3,-91.9167,35.3,71,100,2.89,GT,1723063930
561,taki,22.5861,88.9214,27.97,92,91,2.9,IN,1723063853
562,kavieng,-2.5744,150.7967,27.68,78,10,5.29,PG,1723063932
