City_ID,City,Lat,Lng,Max Temp,Humidity,Cloudiness,Wind Speed,Country,Date
0,waitangi,-43.9535,-176.5597,9.34,71,33,6.97,NZ,1723054907
1,vadso,70.0744,29.7487,24.49,55,0,4.12,NO,1723054908
2,albany,42.6001,-73.9662,24.24,69,89,0.45,US,1723054697
3,yulinshi,38.2906,109.7494,21.37,81,78,3.69,CN,1723054911
4,adamstown,-25.066,-130.1015,18.64,66,15,3.88,PN,1723054912
5,jackson,42.4165,-122.8345,27.08,29,0,0.0,US,1723054267
6,klyuchi,52.2667,79.1667,18.48,87,100,3.79,RU,1723054914
7,ilawa,53.596,19.5685,22.17,64,37,0.98,PL,1723054915
8,ribeira grande,38.5167,-28.7,26.22,65,20,4.92,PT,1723054916
9,constantia,44.1833,28.65,20.39,67,42,2.81,RO,1723054815
10,jiangyou,31.7667,104.7167,25.05,87,100,1.74,CN,1723054918
11,antalaha,-14.9003,50.2788,19.49,76,11,3.62,MG,1723054919
12,bredasdorp,-34.5322,20.0403,10.57,94,3,2.44,ZA,1723054921
13,blackmans bay,-43.0167,147.3167,9.07,80,99,0.45,AU,1723054922
14,trincomalee,8.5711,81.2335,27.48,81,66,4.48,LK,1723054923
15,namibe,-15.1961,12.1522,17.05,90,24,5.51,AO,1723054924
16,wailua homesteads,22.0669,-159.378,27.24,73,0,5.66,US,1723054925
17,yellowknife,62.456,-114.3525,20.79,49,75,5.66,CA,1723054926
18,ushuaia,-54.8,-68.3,2.79,64,0,1.03,AR,1723054679
19,yel'nya,54.5786,33.1837,15.07,92,100,0.69,RU,1723054928
20,kotel'nich,58.3089,48.348,15.89,82,100,3.31,RU,1723054929
21,kailua-kona,19.6406,-155.9956,27.0,79,40,0.0,US,1723054931
22,ghat,24.9647,10.1728,37.26,9,3,6.25,LY,1723054932
23,bethel,41.3712,-73.414,19.2,88,100,3.09,US,1723054774
24,grytviken,-54.2811,-36.5092,-3.81,71,66,5.59,GS,1723054934
25,natal,-5.795,-35.2094,28.36,69,40,10.29,BR,1723054719
26,utrik,11.2278,169.8474,28.33,76,100,6.38,MH,1723054936
27,uturoa,-16.7333,-151.4333,25.92,79,7,4.82,PF,1723054937
28,lihue,21.9789,-159.3672,27.58,73,0,5.66,US,1723054938
29,holualoa,19.6228,-155.9522,24.93,78,40,0.0,US,1723054940
30,margate,51.3813,1.3862,19.39,65,100,0.45,GB,1723054726
31,hamilton,39.1834,-84.5333,30.13,65,40,3.6,US,1723054702
32,puerto ayora,-0.7393,-90.3518,24.98,91,65,4.02,EC,1723054943
33,qaqortoq,60.7167,-46.0333,8.23,94,100,2.66,GL,1723054944
34,stanley,54.868,-1.6985,16.82,70,20,6.17,GB,1723054945
35,khamgaon,20.6833,76.5667,25.33,83,100,5.72,IN,1723054946
36,bilibino,68.0546,166.4372,4.41,72,0,1.96,RU,1723054947
37,gadzhiyevo,69.2551,33.3362,15.84,60,11,1.32,RU,1723054948
38,college,64.8569,-147.8028,21.06,58,75,1.54,US,1723054950
39,sinan,34.8262,126.1086,27.06,86,5,2.08,KR,1723054951
40,tiksi,71.6872,128.8694,5.18,99,71,0.58,RU,1723054953
41,awjilah,29.1081,21.2869,35.35,20,0,4.21,LY,1723054954
42,chiang kham,19.5233,100.3,23.38,95,99,1.99,TH,1723054955
43,kodiak,57.79,-152.4072,13.73,94,0,1.54,US,1723054957
44,edinburgh of the seven seas,-37.0676,-12.3116,8.19,65,97,14.64,SH,1723054958
45,petropavlovsk-kamchatsky,53.0452,158.6483,12.33,100,40,1.0,RU,1723054960
46,port-aux-francais,-49.35,70.2167,1.15,99,100,11.61,TF,1723054962
47,lae,-6.7221,146.9847,23.15,90,100,2.42,PG,1723054963
48,gelendzhik,44.5731,38.0747,22.46,66,13,1.6,RU,1723054802
49,afaahiti,-17.75,-149.2833,24.93,85,19,7.4,PF,1723054965
50,papatowai,-46.5619,169.4708,7.15,90,100,4.32,NZ,1723054966
51,najafgarh,28.6123,76.9824,27.06,94,100,0.0,IN,1723054967
52,mcgregor,26.5609,-81.9145,33.37,75,75,7.2,US,1723054968
53,hithadhoo,-0.6,73.0833,28.97,68,100,1.34,MV,1723054969
54,puerto natales,-51.7236,-72.4875,1.25,75,0,3.09,CL,1723054971
55,jobabo,20.9692,-76.2994,34.01,41,98,4.87,CU,1723054972
56,prince rupert,54.3161,-130.3201,12.83,100,100,1.54,CA,1723054973
57,aykhal,66.0,111.5,12.01,57,65,3.63,RU,1723054974
58,ziway,7.9333,38.7167,19.16,80,42,6.63,ET,1723054975
59,port alfred,-33.5906,26.891,17.97,52,97,2.88,ZA,1723054976
60,hawaiian paradise park,19.5933,-154.9731,26.61,81,75,1.54,US,1723054977
61,olonkinbyen,70.9221,-8.7187,6.07,100,100,5.2,SJ,1723054978
62,tres arroyos,-38.3739,-60.2798,7.79,95,100,7.59,AR,1723054979
63,iskateley,67.6803,53.1512,7.31,86,8,3.84,RU,1723054980
64,punta arenas,-53.15,-70.9167,2.06,87,0,4.63,CL,1723054982
65,isafjordur,66.0755,-23.124,7.26,86,92,3.4,IS,1723054983
66,ilulissat,69.2167,-51.1,5.01,93,100,2.06,GL,1723054984
67,wauseon,41.5492,-84.1416,24.28,67,100,4.63,US,1723054985
68,tazovsky,67.4667,78.7,9.63,72,100,6.03,RU,1723054987
69,margaret river,-33.95,115.0667,13.3,65,27,5.08,AU,1723054988
70,laguna,38.421,-121.4238,37.32,35,2,0.89,US,1723054808
71,port mathurin,-19.6833,63.4167,22.48,73,12,4.62,MU,1723054990
72,iqaluit,63.7506,-68.5145,9.85,71,40,2.57,CA,1723054991
73,lebu,-37.6167,-73.65,9.55,62,0,5.63,CL,1723054993
74,universal city,34.1389,-118.3534,31.9,57,0,4.12,US,1723054994
75,al ghayzah,16.2079,52.176,25.16,88,85,7.64,YE,1723054995
76,ballito,-29.539,31.2144,20.08,77,0,5.14,ZA,1723054996
77,camabatela,-8.1881,15.375,22.54,40,89,2.17,AO,1723054997
78,christchurch,-43.5333,172.6333,10.51,66,100,8.05,NZ,1723054837
79,touros,-5.1989,-35.4608,27.31,68,35,8.72,BR,1723054999
80,nikolayevsk-on-amure,53.1406,140.73,12.79,98,96,1.32,RU,1723055000
81,faya-largeau,17.9257,19.1043,36.46,33,100,3.93,TD,1723055001
82,jaisalmer,26.9147,70.9181,28.89,69,91,8.82,IN,1723054935
83,ust-nera,64.5667,143.2,10.72,94,100,1.27,RU,1723055004
84,homer,59.6425,-151.5483,15.58,78,100,4.12,US,1723055005
85,lincheng,19.9078,109.6858,27.72,79,2,1.73,CN,1723055006
86,ipubi,-7.6519,-40.1489,29.13,37,76,3.42,BR,1723055007
87,riachao das neves,-11.7461,-44.91,31.69,19,1,2.74,BR,1723055008
88,taltal,-25.4,-70.4833,15.93,66,1,3.77,CL,1723055009
89,jamestown,42.097,-79.2353,24.75,62,100,4.12,US,1723055010
90,kavieng,-2.5744,150.7967,27.7,76,60,5.85,PG,1723055011
91,isangel,-19.55,169.2667,20.16,69,60,4.95,VU,1723055012
92,rio grande,-32.035,-52.0986,19.06,92,100,4.59,BR,1723055014
93,dunedin,-45.8742,170.5036,8.25,75,100,1.65,NZ,1723055015
94,georgetown,5.4112,100.3354,27.96,75,20,2.06,MY,1723054810
95,thompson,55.7435,-97.8558,14.09,72,75,4.63,CA,1723055017
96,luang prabang,19.8856,102.1347,23.36,96,42,0.88,LA,1723055018
97,baldwin harbor,40.6395,-73.6085,19.58,93,100,4.63,US,1723055019
98,dryden,49.7833,-92.7503,18.16,88,75,5.14,CA,1723055020
99,port lincoln,-34.7333,135.8667,13.71,56,80,9.91,AU,1723055021
100,taber,49.8167,-112.1518,18.0,72,100,2.06,CA,1723054888
101,colonia,50.9333,6.95,23.31,64,20,1.03,DE,1723055023
102,bandipura,34.4167,74.65,20.17,87,18,2.19,IN,1723055025
103,senanga,-16.1167,23.2667,21.09,15,0,1.96,ZM,1723055026
104,prado,-17.3411,-39.2208,24.96,59,46,3.17,BR,1723055027
105,mount gambier,-37.8333,140.7667,11.27,58,100,5.42,AU,1723055028
106,anadyr,64.75,177.4833,7.28,75,75,2.0,RU,1723055029
107,kyren,51.6828,102.1408,13.18,89,67,1.05,RU,1723055030
108,hengyang,26.8881,112.615,28.38,72,9,2.1,CN,1723055031
109,manta,-0.95,-80.7333,27.88,65,40,6.17,EC,1723055032
110,west island,-12.1568,96.8225,26.99,74,84,6.69,CC,1723055033
111,dudinka,69.4058,86.1778,10.05,61,1,7.64,RU,1723055034
112,biograd na moru,43.9433,15.4519,30.39,59,5,2.96,HR,1723055036
113,belyy yar,53.6039,91.3903,17.94,82,0,3.0,RU,1723055037
114,vorgashor,67.5833,63.95,8.54,70,4,2.55,RU,1723054875
115,whitehorse,60.7161,-135.0538,21.43,38,0,7.72,CA,1723055039
116,hillsborough,37.5741,-122.3794,29.85,62,0,2.68,US,1723054899
117,pacific grove,36.6177,-121.9166,25.67,84,0,6.17,US,1723055041
118,yung shue wan,22.2333,114.1167,30.38,85,89,6.42,HK,1723055042
119,fale old settlement,-9.3852,-171.2468,27.29,75,97,8.65,TK,1723055044
120,sinop,41.7711,34.8709,17.76,88,29,0.44,TR,1723054458
121,acajutla,13.5928,-89.8275,30.24,63,90,3.0,SV,1723055047
122,cabo san lucas,22.8909,-109.9124,33.61,70,20,5.66,MX,1723055048
123,enewetak,11.3474,162.3373,28.63,74,87,5.0,MH,1723055049
124,progreso,21.2833,-89.6667,34.5,60,86,4.82,MX,1723055050
125,port elizabeth,-33.918,25.5701,15.73,52,0,1.54,ZA,1723055052
126,chongwe,-15.3292,28.682,18.24,42,5,2.49,ZM,1723055053
127,bardai,11.65,7.2333,22.64,92,97,2.82,NG,1723055055
128,longyearbyen,78.2186,15.6401,10.91,93,75,1.54,SJ,1723055056
129,sandnessjoen,66.0217,12.6316,20.23,60,75,3.09,NO,1723055057
130,panama city beach,30.1766,-85.8055,36.16,54,40,4.63,US,1723055015
131,coquimbo,-29.9533,-71.3436,13.85,76,75,4.63,CL,1723055059
132,guanica,17.9716,-66.908,31.96,69,3,6.32,PR,1723055061
133,ancud,-41.8697,-73.8203,8.85,68,3,1.68,CL,1723055063
134,muntok,-2.0667,105.1833,26.26,82,99,3.43,ID,1723055064
135,mount isa,-20.7333,139.5,10.87,50,0,2.57,AU,1723055065
136,atafu village,-8.5421,-172.5159,28.35,68,100,9.19,TK,1723055066
137,fort-shevchenko,44.5086,50.263,27.21,72,34,7.27,KZ,1723055067
138,avarua,-21.2078,-159.775,23.03,73,40,5.66,CK,1723055068
139,isabela,6.7085,121.9711,26.03,89,100,1.92,PH,1723055069
140,weno,7.4515,151.8468,27.97,83,100,2.06,FM,1723055070
141,crane,31.3974,-102.3501,35.23,24,0,2.24,US,1723055071
142,lubang,13.8584,120.124,29.15,76,58,8.48,PH,1723055073
143,val-d'or,48.1002,-77.7828,21.05,46,40,3.09,CA,1723055074
144,pyu,18.4833,96.4333,23.55,99,100,2.16,MM,1723055075
145,sitka,57.0531,-135.33,13.94,94,40,0.0,US,1723055076
146,saipan,15.1355,145.701,28.39,89,40,1.54,MP,1723055077
147,egilsstadir,65.2653,-14.3948,9.95,81,75,5.66,IS,1723055078
148,st. paul,44.9444,-93.0933,25.33,58,40,5.14,US,1723054853
149,brookings,44.3114,-96.7984,22.32,78,75,6.69,US,1723055080
150,bay harbor,30.1471,-85.6146,35.68,53,40,5.66,US,1723055081
151,alotau,-10.3069,150.4462,23.24,96,100,1.73,PG,1723055083
152,mongu,-15.2484,23.1274,20.89,15,1,1.52,ZM,1723055084
153,malabar,-33.9667,151.25,9.24,89,5,3.6,AU,1723055085
154,mahibadhoo,3.7833,72.9667,28.65,70,75,5.13,MV,1723055086
155,nicoya,10.1483,-85.452,27.32,83,92,2.49,CR,1723055087
156,san antonio de pale,-1.4014,5.6325,22.9,83,100,4.54,GQ,1723055088
157,ceylanpinar,36.8472,40.05,36.72,20,0,7.79,TR,1723055089
158,nzega,-2.479,29.5564,19.54,36,53,1.52,RW,1723055090
159,wenshui,28.4506,106.5267,21.01,96,1,2.47,CN,1723055091
160,cabedelo,-6.9811,-34.8339,27.37,73,67,7.71,BR,1723055093
161,invercargill,-46.4,168.35,6.68,90,100,1.79,NZ,1723055094
162,noyabrsk,63.1994,75.4507,11.21,67,52,5.72,RU,1723055095
163,selfoss,63.9331,-20.9971,12.99,80,60,4.08,IS,1723055096
164,kasulu,-4.5767,30.1025,21.1,39,20,1.39,TZ,1723055097
165,codrington,-38.2667,141.9667,11.52,59,88,8.43,AU,1723055098
166,vilyuchinsk,52.9306,158.4028,13.15,90,91,3.14,RU,1723055099
167,nagqu,31.5,92.0,6.6,73,98,1.1,CN,1723055100
168,lagoa,39.05,-27.9833,22.11,70,5,3.79,PT,1723055101
169,huarmey,-10.0681,-78.1522,20.07,72,24,5.22,PE,1723055102
170,udachny,66.4167,112.4,12.8,54,78,3.55,RU,1723055056
171,remire-montjoly,4.9167,-52.2667,28.02,83,75,3.6,GF,1723055105
172,banda aceh,5.5577,95.3222,27.1,78,99,4.22,ID,1723055106
173,metlili chaamba,32.2667,3.6333,38.52,16,0,2.57,DZ,1723055107
174,soller,39.7662,2.7152,33.79,31,3,0.27,ES,1723055108
175,conceicao da barra,-18.5933,-39.7322,25.4,59,61,3.2,BR,1723055109
176,la roda,39.2167,-2.15,34.85,18,0,6.73,ES,1723055110
177,minas de marcona,-15.2119,-75.1103,12.49,78,85,10.88,PE,1723055111
178,luwuk,-0.9516,122.7875,21.55,95,100,2.37,ID,1723055113
179,freetown,8.484,-13.2299,26.03,78,92,4.72,SL,1723055114
180,keflavik,64.0049,-22.5624,14.95,77,20,5.66,IS,1723055115
181,luderitz,-26.6481,15.1594,12.37,85,29,0.54,NA,1723055117
182,fuyu,45.1833,124.8167,21.79,96,0,3.25,CN,1723055119
183,rosarito,32.3333,-117.0333,25.92,73,23,3.45,MX,1723055120
184,san andres,12.5847,-81.7006,29.01,84,20,6.69,CO,1723055121
185,villa de arista,22.65,-100.8333,26.45,40,53,1.04,MX,1723055122
186,belmonte,-15.8631,-38.8828,24.91,62,42,3.98,BR,1723055123
187,yuzhno-kurilsk,44.0306,145.8556,17.95,99,100,2.81,RU,1723055125
188,nar'yan-mar,67.6713,53.087,7.41,86,8,3.86,RU,1723055126
189,al jubayl,27.0112,49.6583,34.66,49,21,2.44,SA,1723055127
190,sur,22.5667,59.5289,28.36,74,67,6.29,OM,1723055128
191,taroa,8.7058,171.2275,27.59,75,87,4.22,MH,1723055129
192,ostersund,63.1792,14.6357,17.25,96,0,6.69,SE,1723055130
193,tamanrasset,22.785,5.5228,33.95,10,0,5.66,DZ,1723055131
194,severo-yeniseyskiy,60.3725,93.0408,13.53,97,100,1.04,RU,1723055132
195,san luis de la loma,17.2706,-100.8939,31.96,60,73,4.49,MX,1723055133
196,kuala lipis,4.1842,102.0468,22.82,100,100,0.57,MY,1723055135
197,maun,-19.9833,23.4167,22.0,15,0,1.12,BW,1723055136
198,ta`u,-14.2336,-169.5144,24.62,79,100,9.67,AS,1723055137
199,kulhudhuffushi,6.6221,73.07,28.47,77,93,6.96,MV,1723055138
200,aitape,-3.1374,142.3475,24.94,88,80,2.19,PG,1723055139
201,priargunsk,50.3691,119.1012,14.26,85,6,1.6,RU,1723055140
202,mili,6.0815,171.735,25.62,86,100,6.31,MH,1723055141
203,jwaneng,-24.6004,24.7303,17.64,35,5,4.11,BW,1723055142
204,boppard,50.2308,7.5899,23.9,66,46,1.97,DE,1723055143
205,takoradi,4.8845,-1.7554,24.36,80,100,4.73,GH,1723055144
206,yeppoon,-23.1333,150.7333,15.88,93,17,5.19,AU,1723055146
207,labuan,5.2767,115.2417,26.2,94,20,0.0,MY,1723054981
208,talnakh,69.4865,88.3972,10.48,63,0,5.91,RU,1723055148
209,umarkhed,19.6,77.7,23.36,93,100,1.36,IN,1723055150
210,vila velha,-20.3297,-40.2925,26.97,72,0,7.72,BR,1723055070
211,happy valley-goose bay,53.3168,-60.3315,15.17,82,75,4.63,CA,1723055152
212,baukau,51.5526,7.2042,22.17,73,95,3.05,DE,1723055154
213,ji'an,27.1172,114.9793,27.03,74,12,1.74,CN,1723055155
214,sittwe,20.15,92.9,26.33,87,100,2.79,MM,1723055156
215,reggane,26.7158,0.1714,42.91,8,0,5.89,DZ,1723055157
216,axim,4.8699,-2.2405,23.96,84,100,3.41,GH,1723055158
217,wenling,28.3669,121.36,27.16,91,100,2.29,CN,1723055159
218,badger,64.8,-147.5333,21.01,62,75,1.54,US,1723055160
219,howrah,22.5892,88.3103,28.0,89,40,2.06,IN,1723055161
220,ngereklmadel,7.4883,134.4856,26.05,89,100,5.14,PW,1723055162
221,chinchilla,-26.75,150.6333,12.23,97,69,0.45,AU,1723055164
222,pemba,-12.974,40.5178,24.64,70,3,5.93,MZ,1723055165
223,bam,29.106,58.357,35.46,5,0,5.51,IR,1723055166
224,puerto lempira,15.2667,-83.7667,30.28,70,91,3.98,HN,1723055167
225,lazaro cardenas,17.9583,-102.2,31.02,62,98,3.94,MX,1723055169
226,vernon,50.2581,-119.2691,27.74,31,1,1.54,CA,1723055159
227,namdrik,5.5994,168.1028,27.53,75,98,5.01,MH,1723055171
228,varzea grande,-15.6467,-56.1325,35.93,20,0,5.14,BR,1723055172
229,kot samaba,28.5522,70.4684,35.17,50,29,5.74,PK,1723055174
230,haiku-pauwela,20.9219,-156.3051,26.13,77,20,8.23,US,1723055175
231,plastun,44.7561,136.2939,20.26,100,100,0.17,RU,1723055176
232,kertih,4.5141,103.4483,25.01,88,99,0.0,MY,1723055177
233,as sulayyil,20.4607,45.5779,38.14,25,100,7.65,SA,1723055178
234,waddan,29.1614,16.139,37.29,13,6,4.89,LY,1723055179
235,turuntayevo,52.2,107.6167,14.05,92,19,1.25,RU,1723055180
236,kolwezi,-10.7148,25.4667,19.23,25,33,2.47,CD,1723055181
237,jingzhou,30.3503,112.1903,27.71,74,3,3.4,CN,1723055182
238,alofi,-19.0595,-169.9187,19.94,73,100,3.6,NU,1723055183
239,hai duong,20.9333,106.3167,30.0,91,0,2.62,VN,1723055185
240,hermanus,-34.4187,19.2345,9.33,87,3,5.23,ZA,1723055186
241,parabel',58.6978,81.4825,11.87,91,78,2.26,RU,1723055187
242,bubaque,11.2833,-15.8333,26.17,84,100,7.39,GW,1723055188
243,qusmuryn,52.4503,64.6311,20.24,81,100,2.89,KZ,1723055189
244,tommot,58.9564,126.2925,11.9,94,4,0.64,RU,1723055190
245,kavaratti,10.5669,72.642,27.45,83,100,5.49,IN,1723055191
246,westport,41.1415,-73.3579,19.36,86,100,4.12,US,1723055097
247,turbat,26.0023,63.044,28.9,72,96,4.25,PK,1723055193
248,tanjung pandan,-2.75,107.65,24.85,93,100,2.73,ID,1723055195
249,providence,41.824,-71.4128,20.29,86,100,4.63,US,1723055000
250,vilhena,-12.7406,-60.1458,32.12,31,0,3.09,BR,1723055197
251,timmins,48.4669,-81.3331,22.9,33,75,4.12,CA,1723055199
252,paramonga,-10.6667,-77.8333,18.87,76,63,5.22,PE,1723055200
253,bikenibeu village,1.3673,173.1241,27.98,83,20,0.0,KI,1723055201
254,ayang-ni,38.2431,125.78,23.58,92,90,1.04,KP,1723055202
255,saint-philippe,-21.3585,55.7679,19.77,73,2,2.83,RE,1723055203
256,arraial do cabo,-22.9661,-42.0278,29.98,57,0,7.72,BR,1723055196
257,kapuskasing,49.4169,-82.4331,22.05,46,100,2.57,CA,1723055206
258,balqash,46.8481,74.995,25.06,46,80,2.89,KZ,1723055207
259,kingston,17.997,-76.7936,33.98,66,20,9.77,JM,1723054931
260,qarqaraly,49.4058,75.4742,20.58,54,100,2.43,KZ,1723055209
261,oranjemund,-28.55,16.4333,12.52,88,0,1.33,NA,1723055210
262,barah,13.7,30.3667,28.59,63,86,4.24,SD,1723055211
263,vila franca do campo,37.7167,-25.4333,25.23,79,70,3.16,PT,1723055212
264,mariental,-24.6333,17.9667,20.3,11,2,5.42,NA,1723055213
265,marka,1.7159,44.7717,24.58,86,93,6.67,SO,1723055214
266,san patricio,28.017,-97.5169,36.62,38,0,1.12,US,1723055215
267,merida,20.9667,-89.6167,34.45,59,75,3.13,MX,1723055067
268,island harbour,50.724,-1.2758,19.53,76,86,2.68,GB,1723055218
269,loiza,18.4313,-65.8802,33.35,68,20,8.23,PR,1723055219
270,ibarreta,-25.2144,-59.8585,13.12,93,100,5.19,AR,1723055220
271,geraldton,-28.7667,114.6,14.23,94,75,2.57,AU,1723054926
272,coria,39.9879,-6.5377,36.36,12,0,2.53,ES,1723055222
273,vapnyarka,48.5348,28.7436,21.6,71,80,2.72,UA,1723055223
274,la passe,45.5549,-0.8967,23.34,60,100,5.91,FR,1723055224
275,boyolangu,-8.1181,111.8935,23.19,96,94,2.91,ID,1723055225
276,ponta delgada,37.7333,-25.6667,25.4,73,40,5.66,PT,1723055227
277,cabinda,-5.55,12.2,23.08,83,95,3.09,AO,1723055228
278,khoyniki,51.8911,29.9552,19.35,63,85,2.67,BY,1723055229
279,ghadamis,30.1337,9.5007,36.14,17,0,2.99,LY,1723055230
280,cockburn town,21.4612,-71.1419,28.18,81,100,6.63,TC,1723055231
281,kuytun,54.3419,101.5036,12.69,93,50,1.69,RU,1723055232
282,jabor,5.921,169.6434,25.35,88,100,4.09,MH,1723055233
283,beau vallon,-20.4189,57.6953,22.13,73,40,3.6,MU,1723055234
284,la sarre,48.8002,-79.1996,21.34,42,44,3.34,CA,1723055136
285,bermejo,-32.8833,-68.8,8.95,34,75,3.09,AR,1723055236
286,st. john's,47.5649,-52.7093,22.38,62,75,7.72,CA,1723055238
287,ziro,27.6333,93.8333,16.73,99,68,0.09,IN,1723055239
288,kandahar,31.0,65.75,30.59,11,0,3.78,AF,1723055240
289,coahuayana de hidalgo,18.7,-103.6583,33.1,54,100,2.16,MX,1723055241
290,yemva,62.59,50.8594,12.11,68,7,1.99,RU,1723055242
291,chipinge,-20.1883,32.6236,14.45,82,1,2.57,ZW,1723055243
292,vilyuysk,63.7553,121.6247,6.72,93,17,0.08,RU,1723055244
293,kiama,-34.6833,150.8667,7.36,91,9,2.22,AU,1723055245
294,caleta de carquin,-11.0925,-77.6267,18.89,75,64,5.23,PE,1723055246
295,bengkulu,-3.8004,102.2655,23.6,86,99,1.5,ID,1723055173
296,saint-joseph,-21.3667,55.6167,19.21,70,1,2.99,RE,1723055250
297,zhezqazghan,47.7833,67.7667,28.49,30,37,3.85,KZ,1723055251
298,praia da vitoria,38.7333,-27.0667,25.98,65,20,2.79,PT,1723055252
299,moyynkum,44.2914,72.9469,29.13,21,5,3.28,KZ,1723055253
300,rheinau,48.8667,8.2,25.04,69,20,2.57,DE,1723055254
301,puerto salgar,5.463,-74.6544,33.24,51,87,0.61,CO,1723055255
302,shingu,33.7333,135.9833,24.77,85,0,2.09,JP,1723055256
303,doka,13.5167,35.7667,24.46,82,100,1.78,SD,1723055257
304,carnarvon,-24.8667,113.6333,18.55,77,17,3.97,AU,1723055258
305,lata,40.1629,-8.3327,23.37,51,3,3.07,PT,1723055260
306,magadan,59.5667,150.8,10.03,92,81,2.23,RU,1723055261
307,portimao,37.1386,-8.5378,25.65,53,0,7.65,PT,1723055262
308,puerto deseado,-47.7503,-65.8938,6.24,58,7,7.42,AR,1723055263
309,villavicencio,4.142,-73.6266,29.83,54,72,2.29,CO,1723054969
310,san-pedro,4.7485,-6.6363,24.44,77,93,3.74,CI,1723055265
311,katabu,-4.9333,122.5167,24.07,84,53,2.38,ID,1723055266
312,el galpon,-25.3807,-64.6526,17.39,42,53,3.8,AR,1723055267
313,nieuw amsterdam,5.8833,-55.0833,33.01,58,40,1.54,SR,1723055268
314,khor,47.8861,134.9464,19.9,97,100,1.96,RU,1723055269
315,urengoy,65.9667,78.3667,11.62,64,97,5.15,RU,1723055271
316,myski,53.709,87.8014,14.86,99,76,1.6,RU,1723055272
317,pakur,24.6333,87.85,27.42,90,74,3.1,IN,1723055273
318,karaton,-6.3424,106.1045,22.15,92,97,0.6,ID,1723055274
319,gaogou,34.0175,119.1886,25.63,96,91,2.61,CN,1723055275
320,zouerate,22.7187,-12.4521,41.09,13,3,2.61,MR,1723055276
321,la ronge,55.1001,-105.2842,15.14,51,75,3.6,CA,1723055183
322,aasiaat,68.7098,-52.8699,4.0,92,90,3.45,GL,1723055278
323,greymouth,-42.4667,171.2,8.22,88,100,6.4,NZ,1723055279
324,port shepstone,-30.7414,30.455,19.45,81,37,5.98,ZA,1723055280
325,broken hill,-31.95,141.4333,9.03,70,39,4.58,AU,1723055057
326,akureyri,65.6835,-18.0878,8.96,87,100,4.63,IS,1723055283
327,nirgua,10.1553,-68.5663,29.61,46,30,0.87,VE,1723055284
328,tura,25.5198,90.2201,24.6,95,69,3.11,IN,1723055285
329,tougan,13.0667,-3.0667,29.13,69,100,3.01,BF,1723055286
330,kodinsk,58.6881,99.1844,16.31,98,99,1.33,RU,1723055288
331,kotlas,61.2611,46.6556,13.63,84,100,1.57,RU,1723055289
332,songling,31.1933,120.7176,28.18,82,33,2.54,CN,1723055290
333,pointe-noire,-4.7761,11.8635,23.04,88,20,3.09,CG,1723055291
334,bijie,27.3125,105.2942,18.99,97,21,2.98,CN,1723055293
335,nova vicosa,-17.8919,-39.3719,25.11,59,67,4.05,BR,1723055295
336,kaedi,16.1465,-13.5047,34.24,48,100,4.36,MR,1723055296
337,tinajo,29.0788,-13.7081,25.49,57,20,8.23,ES,1723055297
338,cox's bazar,21.4532,91.9798,25.3,92,100,5.73,BD,1723055298
339,khash,28.2211,61.2158,31.05,23,86,3.38,IR,1723055299
340,smithers,54.7804,-127.1743,21.18,43,20,0.0,CA,1723055300
341,nantucket,41.2835,-70.0995,20.01,77,100,7.2,US,1723055097
342,ain sefra,32.75,-0.5833,36.42,12,13,6.12,DZ,1723055303
343,nookat,40.2671,72.6207,19.42,32,0,3.58,KG,1723055304
344,nellore,14.4333,79.9667,26.88,79,99,1.9,IN,1723055305
345,novodvinsk,64.4165,40.8122,14.86,63,33,2.14,RU,1723055306
346,katsuren-haebaru,26.3369,127.8719,28.94,89,0,3.09,JP,1723055307
347,richards bay,-28.783,32.0377,20.59,71,0,7.31,ZA,1723055308
348,arno,60.1167,18.6333,19.32,67,80,4.62,SE,1723055309
349,howard springs,-12.497,131.047,21.95,91,43,1.49,AU,1723055310
350,turrialba,9.9047,-83.6835,26.87,96,100,0.86,CR,1723055311
351,suomussalmi,64.8869,28.9078,14.9,63,24,2.07,FI,1723055312
352,whakatane,-37.9585,176.9854,8.21,83,87,2.37,NZ,1723055314
353,princeville,45.7668,-61.2985,23.68,55,0,3.6,CA,1723055315
354,tejen,37.3834,60.5054,33.22,13,0,3.95,TM,1723055316
355,flying fish cove,-10.4217,105.6791,24.82,83,75,6.69,CX,1723055317
356,poronaysk,49.2167,143.1167,15.57,97,34,1.41,RU,1723055318
357,horta,38.5333,-28.6333,25.8,69,20,4.92,PT,1723055320
358,bathsheba,13.2167,-59.5167,31.34,70,40,8.23,BB,1723055322
359,fortuna,40.5982,-124.1573,17.51,80,0,1.54,US,1723055323
360,reisterstown,39.4696,-76.8294,29.53,78,96,1.34,US,1723055324
361,malango,-2.9627,119.9001,18.2,100,94,0.83,ID,1723055326
362,soe,-9.8607,124.284,16.57,91,26,2.2,ID,1723055327
363,fuglafjordur,62.244,-6.814,12.26,94,68,5.21,FO,1723055328
364,ixtapa,20.7,-105.2,32.35,70,40,2.57,MX,1723055330
365,nemuro,43.3236,145.575,17.71,100,100,5.16,JP,1723055331
366,pathein,16.7833,94.7333,25.17,93,99,2.26,MM,1723055332
367,kalmunai,7.4167,81.8167,27.43,86,11,1.9,LK,1723055333
368,longquan,24.6719,102.1613,18.39,96,5,1.69,CN,1723055334
369,el granada,37.5027,-122.4694,29.04,63,20,2.57,US,1723055335
370,catio,11.2833,-15.25,26.66,83,99,4.9,GW,1723055337
371,qamdo,31.1667,97.2333,9.98,72,86,2.58,CN,1723055339
372,krasnovishersk,60.4078,57.082,11.53,84,97,1.14,RU,1723055340
373,nova praha,48.5682,32.9027,20.87,55,55,1.8,UA,1723055341
374,saldanha,-33.0117,17.9442,12.03,89,0,2.78,ZA,1723055342
375,collie,-33.3667,116.15,7.12,93,2,1.05,AU,1723055343
376,ingeniero guillermo n. juarez,-23.9,-61.85,14.57,68,100,6.55,AR,1723055344
377,labasa,-16.4167,179.3833,19.15,73,8,3.13,FJ,1723055345
378,sinabang,2.4803,96.3801,26.41,82,98,2.16,ID,1723055346
379,ketchikan,55.3422,-131.6461,15.75,62,5,1.41,US,1723055348
380,maintirano,-18.0667,44.0167,23.23,80,0,2.18,MG,1723055349
381,olyokminsk,60.3736,120.4264,12.02,65,12,1.63,RU,1723055351
382,elda,38.4778,-0.7916,29.47,32,0,2.23,ES,1723055352
383,mil'kovo,55.6078,37.7956,20.75,68,100,2.41,RU,1723055353
384,conde,-7.2597,-34.9075,26.7,69,75,8.75,BR,1723055354
385,nema,57.5067,50.5011,15.65,97,96,2.39,RU,1723055355
386,welland,42.9834,-79.2496,26.16,54,0,9.26,CA,1723055356
387,kismayo,-0.3582,42.5454,25.04,82,99,7.71,SO,1723055357
388,broome,42.2506,-75.833,22.89,75,100,3.6,US,1723055359
389,port macquarie,-31.4333,152.9167,8.83,81,97,2.08,AU,1723055360
390,hirara,24.8,125.2833,28.15,94,100,2.06,JP,1723055361
391,jinghong,21.991,100.7341,22.3,99,98,1.0,CN,1723055362
392,tsiombe,-25.3,45.4833,20.02,79,93,6.25,MG,1723055363
393,iwanai,42.9744,140.5089,23.39,97,100,0.4,JP,1723055364
394,lauro de freitas,-12.8944,-38.3272,23.01,88,75,4.63,BR,1723055359
395,zhangye,38.9342,100.4517,26.43,30,100,3.04,CN,1723055366
396,sirur,18.8333,74.3833,23.17,84,100,6.18,IN,1723055367
397,sallisaw,35.4604,-94.7875,35.08,43,0,3.09,US,1723055199
398,pirallahi,40.4723,50.333,27.08,78,0,12.66,AZ,1723055370
399,thunder bay,48.4001,-89.3168,24.95,47,75,6.17,CA,1723055371
400,berdigestyakh,62.0989,126.6992,6.81,93,11,1.56,RU,1723055372
401,karachi,24.9056,67.0822,28.9,74,40,6.17,PK,1723055373
402,regina,50.4501,-104.6178,16.99,49,75,7.2,CA,1723054979
403,quellon,-43.1167,-73.6167,8.64,78,30,2.23,CL,1723055375
404,askoy,60.4092,5.226,18.16,68,40,5.66,NO,1723055376
405,al hayy,32.1735,46.0433,40.35,11,0,6.66,IQ,1723055377
406,tidjikja,18.5564,-11.4271,35.13,32,81,5.16,MR,1723055378
407,alamos,27.0167,-108.9333,31.14,50,100,1.94,MX,1723055380
408,santana,-0.0583,-51.1817,34.1,59,40,4.63,BR,1723055381
409,bhatgaon,21.15,81.7,23.67,95,100,4.0,IN,1723055382
410,hadibu,12.65,54.0333,25.98,81,21,8.16,YE,1723055383
411,mundri,-6.9558,111.71,23.62,87,4,2.4,ID,1723055384
412,noumea,-22.2763,166.4572,21.11,99,100,4.73,NC,1723055385
413,castillos,-34.1667,-53.8333,15.01,63,100,5.15,UY,1723055386
414,libreville,0.3925,9.4537,25.01,83,40,3.6,GA,1723055387
415,hilo,19.7297,-155.09,26.17,80,75,3.13,US,1723055388
416,yemel'yanovo,56.1681,92.6767,17.45,88,0,2.0,RU,1723055389
417,mount pearl,47.5166,-52.7813,21.92,62,75,7.72,CA,1723055391
418,san luis,-33.295,-66.3356,9.35,35,34,7.79,AR,1723055392
419,loreto,22.2667,-101.9667,25.91,33,31,1.27,MX,1723055393
420,bonthe,7.5264,-12.505,26.25,76,96,4.89,SL,1723055394
421,bom jesus,-9.0744,-44.3586,35.96,16,55,1.94,BR,1723055395
422,revda,56.801,59.9303,14.57,98,100,3.91,RU,1723055396
423,chui,-33.6971,-53.4616,15.1,71,100,5.19,UY,1723055397
424,wanning,18.8003,110.3967,26.34,85,3,3.77,CN,1723055398
425,shira,54.4911,89.9531,15.3,80,88,2.49,RU,1723055399
426,mount sterling,38.0565,-83.9433,31.03,68,75,0.0,US,1723055401
427,kerikeri,-35.2268,173.9474,9.12,88,75,1.81,NZ,1723055402
428,new norfolk,-42.7826,147.0587,9.72,94,100,1.33,AU,1723055403
429,paradip garh,20.3167,86.6167,26.89,84,76,2.75,IN,1723055404
430,qarazhal,48.0078,70.7903,25.31,38,44,3.61,KZ,1723055405
431,tabuk,17.4189,121.4443,23.78,86,65,1.82,PH,1723055406
432,reuleuet,5.2167,96.2833,27.08,77,100,1.63,ID,1723055407
433,rouyn-noranda,48.2398,-79.0288,22.05,40,40,2.06,CA,1723055396
434,opuwo,-18.0607,13.84,22.15,18,0,1.06,NA,1723055409
435,kaa-khem,51.6833,94.7333,15.09,64,26,1.85,RU,1723055410
436,alice springs,-23.7,133.8833,7.75,76,0,2.57,AU,1723055412
437,zaozersk,69.4005,32.4476,13.38,70,8,1.31,RU,1723055413
438,withernsea,53.7311,0.0335,19.14,64,100,5.65,GB,1723055414
439,kirakira,-10.4544,161.9205,25.63,85,100,6.5,SB,1723055415
440,siwa oasis,29.2041,25.5195,34.77,20,0,3.3,EG,1723055416
441,big bend,-26.8167,31.9333,15.86,90,0,1.33,SZ,1723055417
442,nishinoomote,30.7333,131.0,29.35,77,10,4.97,JP,1723055418
443,valparaiso,-33.0393,-71.6273,14.13,53,20,4.12,CL,1723055170
444,mukalla,14.5425,49.1242,31.7,53,55,6.28,YE,1723055421
445,santa terezinha,-29.9002,-50.0904,17.54,83,100,6.01,BR,1723055422
446,posto fiscal rolim de moura,-13.0833,-62.2667,37.18,23,38,2.41,BR,1723055423
447,piacabucu,-10.4056,-36.4344,25.62,67,0,3.61,BR,1723055424
448,bagayevskaya,47.32,40.38,22.49,50,92,1.23,RU,1723055425
449,kalispell,48.1958,-114.3129,21.21,69,75,7.2,US,1723055167
450,ivdel',60.6911,60.4206,7.27,96,4,2.0,RU,1723055427
451,shimoda,34.6667,138.95,25.61,85,0,0.9,JP,1723055428
452,melilla,35.2937,-2.9383,29.11,78,0,2.06,ES,1723055429
453,cambridge,43.3601,-80.3127,25.02,50,0,4.12,CA,1723055280
454,kalix,65.853,23.1565,15.22,66,5,1.76,SE,1723055432
455,vuktyl,63.8567,57.3094,11.36,66,6,1.8,RU,1723055433
456,eyl,7.9803,49.8164,25.45,82,8,11.65,SO,1723055435
457,floro,61.5996,5.0328,18.04,68,40,6.69,NO,1723055436
458,mazagao,-0.115,-51.2894,34.03,39,27,2.19,BR,1723055437
459,brandon,27.9378,-82.2859,34.39,73,75,4.63,US,1723055215
460,east london,-33.0153,27.9116,17.52,63,0,2.06,ZA,1723055427
461,yanam,16.7333,82.2167,24.18,95,100,2.58,IN,1723055440
462,anastasiyevskaya,45.2158,37.8926,24.27,64,0,2.86,RU,1723055442
463,sakon nakhon,17.3333,103.8333,24.96,91,42,1.39,TH,1723055443
464,dubbo,-32.25,148.6167,3.07,100,0,3.6,AU,1723055445
465,hami,42.8,93.45,23.6,49,100,4.53,CN,1723055446
466,cill airne,52.05,-9.5167,15.03,94,75,6.69,IE,1723055447
467,sarkand,45.41,79.9186,21.59,34,1,3.51,KZ,1723055448
468,joshimath,30.5667,79.5667,17.6,95,99,0.62,IN,1723055449
469,lijiang,26.8688,100.2207,14.53,95,29,0.89,CN,1723055450
470,kirensk,57.7853,108.1119,15.06,94,15,1.93,RU,1723055452
471,piti village,13.4626,144.6933,28.03,88,0,1.54,GU,1723055453
472,bella vista,36.4295,-94.2316,32.15,45,0,3.6,US,1723055454
473,usta muhammad,28.1794,68.0445,35.59,54,100,3.4,PK,1723055455
474,hafar al-batin,28.4328,45.9708,38.32,7,20,1.54,SA,1723055456
475,clifton,40.8584,-74.1638,19.36,93,100,5.14,US,1723055457
476,bassila,9.0081,1.6654,22.51,94,100,2.03,BJ,1723055458
477,inirida,3.8653,-67.9239,33.81,48,78,0.15,CO,1723055459
478,vanino,49.0869,140.2543,17.65,100,100,1.44,RU,1723055460
479,firestone,40.1125,-104.9366,34.2,34,0,0.45,US,1723055461
480,newman,37.3138,-121.0208,36.25,8,0,0.51,US,1723055463
481,taoudenni,22.6783,-3.9836,43.58,6,0,7.81,ML,1723055464
482,nova sintra,14.8667,-24.7167,25.72,84,83,6.33,CV,1723055466
483,el matama,16.7095,33.3565,29.65,59,100,4.49,SD,1723055467
484,petrinja,45.4375,16.29,27.95,73,90,0.93,HR,1723055468
485,ghanzi,-21.5667,21.7833,19.82,20,0,2.53,BW,1723055469
486,maisi,43.0395,41.2621,15.65,86,34,2.63,GE,1723055470
487,montelibano,7.9829,-75.4229,29.3,76,98,2.85,CO,1723055471
488,callao,-12.0667,-77.15,18.18,72,100,3.09,PE,1723055310
489,pisco,-13.7,-76.2167,19.45,68,75,4.63,PE,1723055474
490,sarupathar,26.1984,93.8094,24.9,98,100,2.55,IN,1723055475
491,lepsy,46.235,78.9456,27.62,27,97,2.81,KZ,1723055476
492,steinbach,50.1667,8.5667,23.73,72,20,4.63,DE,1723055252
493,eastman,32.1977,-83.1777,32.57,62,75,3.09,US,1723055479
494,lompoc,34.6391,-120.4579,31.08,60,0,2.24,US,1723055481
495,garissa,-0.4536,39.6401,25.23,68,99,8.5,KE,1723055482
496,polyarnyy,69.1989,33.4478,15.3,58,8,1.84,RU,1723055483
497,amga,60.8953,131.9608,7.45,94,0,0.96,RU,1723055484
498,karratha,-20.7377,116.8463,20.62,38,4,4.62,AU,1723055485
499,lichuan,30.3,108.85,19.47,96,90,1.44,CN,1723055486
500,marakkanam,12.2,79.95,27.75,78,100,3.78,IN,1723055487
501,peace river,56.2501,-117.286,21.17,68,0,2.06,CA,1723055322
502,tolanaro,-25.0319,46.9987,22.04,78,75,7.2,MG,1723055490
503,tacna,-18.0056,-70.2483,14.11,67,75,3.09,PE,1723055491
504,shahecheng,36.9383,114.5058,22.98,92,100,2.43,CN,1723055492
505,nadvoitsy,63.8667,34.3167,10.92,79,9,2.84,RU,1723055493
506,khmilnyk,49.5598,27.9575,20.48,59,100,2.53,UA,1723055494
507,chonchi,-42.6128,-73.8092,8.56,71,26,0.99,CL,1723055495
508,el colorado,-26.3081,-59.3729,12.67,94,100,4.7,AR,1723055496
509,thinadhoo,0.5333,72.9333,28.52,73,100,1.84,MV,1723055497
510,sao joao da barra,-21.6403,-41.0511,27.05,78,0,10.37,BR,1723055499
511,aketi,2.7388,23.7833,23.6,91,100,0.88,CD,1723055500
512,rongelap,11.1635,166.8941,28.05,76,77,5.23,MH,1723055501
513,viedma,-40.8135,-62.9967,6.62,76,100,9.37,AR,1723055502
514,gamba,-2.65,10.0,21.85,94,96,3.06,GA,1723055503
515,mar del plata,-38.0023,-57.5575,11.01,94,100,5.81,AR,1723055427
516,kineshma,57.4391,42.1289,14.8,95,100,1.97,RU,1723055505
517,maposeni,-10.5833,35.4,19.53,43,2,2.19,TZ,1723055506
518,kununurra,-15.7667,128.7333,18.99,72,94,2.06,AU,1723055507
519,najran,17.4924,44.1277,31.36,41,55,2.93,SA,1723055509
520,hasaki,35.7333,140.8333,26.22,90,100,2.09,JP,1723055510
521,kruisfontein,-34.0033,24.7314,12.71,46,5,2.62,ZA,1723055511
522,akdagmadeni,39.6603,35.8836,17.65,79,0,2.78,TR,1723055512
523,kone,-21.0595,164.8658,18.11,80,100,3.09,NC,1723055514
524,rudnyy,52.9594,63.1206,20.13,91,100,3.12,KZ,1723055515
525,goz beida,13.95,20.55,25.62,81,100,1.45,TD,1723055517
526,kawalu,-7.3817,108.2082,21.91,95,99,0.29,ID,1723055518
527,gore,-46.1028,168.9436,6.3,96,100,0.3,NZ,1723055519
528,la'ie,21.6477,-157.9253,27.98,75,7,5.36,US,1723055816
529,ash shafa,21.0694,40.3119,19.08,59,100,1.38,SA,1723055817
530,bratsk,56.1325,101.6142,15.27,94,99,2.36,RU,1723055819
531,ardabil,38.2498,48.2933,19.75,60,0,5.14,IR,1723055820
532,nuku'alofa,-21.1333,-175.2,20.19,68,20,3.6,TO,1723055592
533,san rafael,-34.6177,-68.3301,11.26,27,90,6.04,AR,1723055604
534,baardheere,2.3446,42.2764,26.4,69,100,9.74,SO,1723055823
535,tulun,54.5611,100.5792,12.27,93,14,1.64,RU,1723055825
536,kinik,39.0872,27.3833,27.95,59,0,4.91,TR,1723055826
537,puerto cabezas,14.0351,-83.3888,32.98,58,40,9.26,NI,1723055828
538,itoman,26.1247,127.6694,28.94,100,0,1.54,JP,1723055829
539,cannes,43.55,7.0167,29.53,75,0,2.57,FR,1723055830
540,usogorsk,63.4106,48.6872,12.2,63,8,1.94,RU,1723055831
541,craig,40.5153,-107.5464,28.79,15,85,5.68,US,1723055832
542,ryotsu-minato,38.0833,138.4333,23.31,86,93,1.11,JP,1723055833
543,portland,45.5234,-122.6762,23.85,64,40,4.63,US,1723055507
544,amalapuram,16.5833,82.0167,24.24,95,100,2.28,IN,1723055835
545,queenstown,-31.8976,26.8753,12.88,28,52,3.25,ZA,1723055836
546,talakag,8.2336,124.6003,24.09,98,100,1.61,PH,1723055837
547,carai,-17.1889,-41.6947,22.6,61,79,3.18,BR,1723055838
548,ayaviri,-14.8864,-70.5889,14.33,11,0,6.6,PE,1723055840
549,inhambane,-23.865,35.3833,20.99,83,20,0.0,MZ,1723055841
550,jianshui,23.6363,102.8264,19.19,97,21,2.17,CN,1723055842
551,batang,-6.4846,110.7083,25.41,81,1,2.38,ID,1723055843
552,udalguri,26.7667,92.1333,25.73,92,100,1.74,IN,1723055844
553,sovetskiy,61.3614,63.5842,9.69,74,0,2.11,RU,1723055845
554,seydisehir,37.4193,31.8453,25.38,41,99,0.9,TR,1723055848
555,idri,27.5,13.2667,34.66,12,6,5.43,LY,1723055849
556,mersing,2.4312,103.8405,23.95,94,20,2.06,MY,1723055850
557,bunia,1.5667,30.25,19.68,72,12,0.62,CD,1723055851
558,ometepec,16.6833,-98.4167,31.73,52,32,2.15,MX,1723055852
559,tateyama,34.9833,139.8667,26.34,89,8,1.39,JP,1723055853
560,tuy hoa,13.0833,109.3,26.07,82,64,1.83,VN,1723055854
561,kovdor,67.5662,30.4758,13.28,57,5,2.44,RU,1723055591
562,keetmanshoop,-26.5833,18.1333,15.91,9,0,1.77,NA,1723055790
563,arkhangel'sk,64.5401,40.5433,15.06,72,0,2.0,RU,1723055857
564,armacao de buzios,-22.7469,-41.8817,32.03,71,0,10.88,BR,1723055859
565,ichhawar,23.0167,77.0167,24.46,89,100,3.47,IN,1723055860
566,biltine,14.5333,20.9167,24.5,84,100,2.01,TD,1723055861
567,ballina,-28.8667,153.5667,9.88,74,25,3.0,AU,1723055862
568,lanzhou,36.0564,103.7922,25.74,55,100,1.46,CN,1723055863
569,kapit,2.0167,112.9333,22.51,99,37,0.45,MY,1723055864
570,saint-pierre,-21.3393,55.4781,19.82,73,0,3.09,RE,1723055865
571,san jose de jachal,-30.2406,-68.7469,7.0,45,100,4.06,AR,1723055866
572,acarau,-2.8856,-40.12,28.81,63,0,9.06,BR,1723055867
573,sungailiat,-1.85,106.1333,26.65,83,100,3.19,ID,1723055869
574,al kharijah,25.4514,30.5464,34.84,18,0,4.84,EG,1723055870
575,argo,37.6333,22.7333,30.99,61,2,0.22,GR,1723055871
576,santa elena de uairen,4.6167,-61.1333,25.09,67,41,4.59,VE,1723055872
577,lorengau,-2.0226,147.2712,27.45,80,5,4.39,PG,1723055873
578,maputo,-25.9653,32.5892,20.82,73,0,5.66,MZ,1723055821
579,kingman,35.1894,-114.053,31.81,38,0,7.2,US,1723055875
580,mata-utu,-13.2816,-176.1745,25.77,67,34,9.5,WF,1723055876
